<WMS_Capabilities xmlns="http://www.opengis.net/wms" xmlns:xlink="http://www.w3.org/1999/xlink" xmlns:xsi="http://www.w3.org/2001/XMLSchema-instance" version="1.3.0" xsi:schemaLocation="http://www.opengis.net/wms http://schemas.opengis.net/wms/1.3.0/capabilities_1_3_0.xsd">
<Service>
<Name>WMS</Name>
<Title>MnGeo WMS service (aerial photography)</Title>
<OnlineResource xmlns:xlink="http://www.w3.org/1999/xlink" xlink:type="simple" xlink:href="https://imageserver.gisdata.mn.gov/"/>
<MaxWidth>8191</MaxWidth>
<MaxHeight>8191</MaxHeight>
</Service>
<Capability>
<Request>
<GetCapabilities>
<Format>text/xml</Format>
<DCPType>
<HTTP>
<Get>
<OnlineResource xmlns:xlink="http://www.w3.org/1999/xlink" xlink:type="simple" xlink:href="https://imageserver.gisdata.mn.gov/cgi-bin/wms?"/>
</Get>
</HTTP>
</DCPType>
</GetCapabilities>
<GetMap>
<Format>image/jpeg</Format>
<DCPType>
<HTTP>
<Get>
<OnlineResource xmlns:xlink="http://www.w3.org/1999/xlink" xlink:type="simple" xlink:href="https://imageserver.gisdata.mn.gov/cgi-bin/wms?"/>
</Get>
</HTTP>
</DCPType>
</GetMap>
</Request>
<Exception>
<Format>XML</Format>
</Exception>
<Layer>
<Title>MnGeo WMS service (aerial photography)</Title>
<CRS>EPSG:26915</CRS>
<Style>
<Name>default</Name>
<Title>Normal</Title>
<Abstract>Colors as in original imagery</Abstract>
</Style>
<Style>
<Name>stretch</Name>
<Title>Contrast Stretch</Title>
<Abstract>Two standard deviation contrast stretch</Abstract>
</Style>
<Layer>
<Title> Regional</Title>
<Layer queryable="0" opaque="1">
<Name>rr2009</Name>
<Title>2008-9 color Red River</Title>
<Abstract>This data set is the result of private and government entities working together under the guidance of the International Water Institute (IWI) regarding the Red River Basin Mapping Initiative (RRBMI). The USACE St Louis District was one of the major contributors in this funding effort. The Red River Basin Mapping Initiative 2008-2010 project acquired 1.4-meter Lidar data for the US portion of the Red River Basin. Additionally, imagery was collected for the main corridor of the basin. Information about the full initiative (IWI Red River Basin Mapping 2008-2010 - LiDAR) can be referenced at http://www.mngeo.state.mn.us/chouse/metadata/iwi_rrbmi_08_10_lidar.html</Abstract>
<CRS>EPSG:26914</CRS>
<EX_GeographicBoundingBox>
<westBoundLongitude>-97.80</westBoundLongitude>
<eastBoundLongitude>-95.91</eastBoundLongitude>
<southBoundLatitude>45.44</southBoundLatitude>
<northBoundLatitude>49.05</northBoundLatitude>
</EX_GeographicBoundingBox>
<BoundingBox CRS="EPSG:26914" minx="594000" miny="5035920" maxx="726096" maxy="5434000" resx="0.5" resy="0.5"/>
<MetadataURL type="FGDC">
<Format>text/html</Format>
<OnlineResource xmlns:xlink="http://www.w3.org/1999/xlink" xlink:href="http://www.mngeo.state.mn.us/chouse/metadata/iwi_rrbmi_08_10_imagery.html"/>
</MetadataURL>
<MaxScaleDenominator>75000000</MaxScaleDenominator>
</Layer>
<Layer queryable="0" opaque="1">
<Name>neir2009</Name>
<Title>2009 cir Arrowhead</Title>
<Abstract>This dataset contains 4 Band (RGBI) digital orthophoto imagery of Cook, Lake, St. Louis and Carlton counties in northern Minnesota. The orthophotos are 0.5 meter ground sample distance (GSD) and are in UTM Zone 15, NAD83 (meters). The tiling format of the imagery is based on a 3.75' x 3.75' quarter quadrangle with a 150 meter buffer on all four sides. This dataset includes 969 digital orthophoto quarter quadrangles (DOQQs) in GeoTiff format with an associated world file, and this metadata file. The data is available online as a web mapping service (WMS). All imagery was collected by Keystone Aerial Surveys Inc with a Vexcel UltraCamX camera from an altitude of approximately 24,000 feet. All imagery was processed by Keystone using the camera manufacturer's software, Inpho's photogrammetry suite and Keystone-created software. Funding for this data was provided by the Minnesota Natural Heritage Fund, the Minnesota Clean Water Legacy Act, The Environmental and Natural Resources Trust Fund, St. Louis County, the Coastal Zone Management Program, and the National Geospatial Intelligence Agency.</Abstract>
<CRS>EPSG:26915</CRS>
<EX_GeographicBoundingBox>
<westBoundLongitude>-93.13</westBoundLongitude>
<eastBoundLongitude>-89.39</eastBoundLongitude>
<southBoundLatitude>46.57</southBoundLatitude>
<northBoundLatitude>48.69</northBoundLatitude>
</EX_GeographicBoundingBox>
<BoundingBox CRS="EPSG:26915" minx="490342.25" miny="5163314.75" maxx="765986.25" maxy="5392901.75" resx="0.5" resy="0.5"/>
<MetadataURL type="FGDC">
<Format>text/html</Format>
<OnlineResource xmlns:xlink="http://www.w3.org/1999/xlink" xlink:href="http://www.mngeo.state.mn.us/chouse/metadata/ne2009_doqq_50cm.html"/>
</MetadataURL>
<MaxScaleDenominator>75000000</MaxScaleDenominator>
</Layer>
<Layer queryable="0" opaque="1">
<Name>dulir09</Name>
<Title>2009 cir Duluth</Title>
<Abstract>This dataset contains 4 Band (RGBI) digital orthophoto imagery of the Big Fork and Little Fork watersheds (most of Koochiching county, northern Itasca county, the middle portion of St. Louis county), and southeast St. Louis County (Duluth-Superior) in northern Minnesota. The orthophotos are 0.3 meter ground sample distance (GSD) and are in UTM Zone 15, NAD83 (meters). The tiling format of the imagery is based on a 3.75' x 3.75' quarter quadrangle with a 150 meter buffer on all four sides. The dataset includes 614 digital orthophoto quarter quadrangles (DOQQs) in GeoTiff format with an associated world file, and this metadata file. The data is available online as a web mapping service (WMS). All imagery was collected by Keystone Aerial Surveys Inc with a Vexcel UltraCamX camera from an altitude of approximately 15,500 feet. All imagery was processed by Keystone using the camera manufacturer's software, Inpho's photogrammetry suite and Keystone-created software. Funding for this data was provided by the Minnesota Natural Heritage Fund, the Minnesota Clean Water Legacy Act, The Environmental and Natural Resources Trust Fund, St. Louis County, the Coastal Zone Management Program, and the National Geospatial Intelligence Agency.</Abstract>
<CRS>EPSG:26915</CRS>
<EX_GeographicBoundingBox>
<westBoundLongitude>-92.45</westBoundLongitude>
<eastBoundLongitude>-91.74</eastBoundLongitude>
<southBoundLatitude>46.62</southBoundLatitude>
<northBoundLatitude>47.26</northBoundLatitude>
</EX_GeographicBoundingBox>
<BoundingBox CRS="EPSG:26915" minx="542462.7" miny="5163473.7" maxx="595449.6" maxy="5233922.4" resx="0.3" resy="0.3"/>
<MetadataURL type="FGDC">
<Format>text/html</Format>
<OnlineResource xmlns:xlink="http://www.w3.org/1999/xlink" xlink:href="http://www.mngeo.state.mn.us/chouse/metadata/ne2009_doqq_30cm.html"/>
</MetadataURL>
<MaxScaleDenominator>75000000</MaxScaleDenominator>
</Layer>
<Layer queryable="0" opaque="1">
<Name>ncir09</Name>
<Title>2009 cir NCentral</Title>
<Abstract>This dataset contains 4 Band (RGBI) digital orthophoto imagery of the Big Fork and Little Fork watersheds (most of Koochiching county, northern Itasca county, the middle portion of St. Louis county), and southeast St. Louis County (Duluth-Superior) in northern Minnesota. The orthophotos are 0.3 meter ground sample distance (GSD) and are in UTM Zone 15, NAD83 (meters). The tiling format of the imagery is based on a 3.75' x 3.75' quarter quadrangle with a 150 meter buffer on all four sides. The dataset includes 614 digital orthophoto quarter quadrangles (DOQQs) in GeoTiff format with an associated world file, and this metadata file. The data is available online as a web mapping service (WMS). All imagery was collected by Keystone Aerial Surveys Inc with a Vexcel UltraCamX camera from an altitude of approximately 15,500 feet. All imagery was processed by Keystone using the camera manufacturer's software, Inpho's photogrammetry suite and Keystone-created software. Funding for this data was provided by the Minnesota Natural Heritage Fund, the Minnesota Clean Water Legacy Act, The Environmental and Natural Resources Trust Fund, St. Louis County, the Coastal Zone Management Program, and the National Geospatial Intelligence Agency.</Abstract>
<CRS>EPSG:26915</CRS>
<EX_GeographicBoundingBox>
<westBoundLongitude>-94.40</westBoundLongitude>
<eastBoundLongitude>-91.79</eastBoundLongitude>
<southBoundLatitude>47.36</southBoundLatitude>
<northBoundLatitude>48.69</northBoundLatitude>
</EX_GeographicBoundingBox>
<BoundingBox CRS="EPSG:26915" minx="396646.65" miny="5246612.25" maxx="589300.65" maxy="5393715.75" resx="0.3" resy="0.3"/>
<MetadataURL type="FGDC">
<Format>text/html</Format>
<OnlineResource xmlns:xlink="http://www.w3.org/1999/xlink" xlink:href="http://www.mngeo.state.mn.us/chouse/metadata/ne2009_doqq_30cm.html"/>
</MetadataURL>
<MaxScaleDenominator>75000000</MaxScaleDenominator>
</Layer>
<Layer queryable="0" opaque="1">
<Name>neclr2009</Name>
<Title>2009 color Arrowhead</Title>
<Abstract>This dataset contains 4 Band (RGBI) digital orthophoto imagery of Cook, Lake, St. Louis and Carlton counties in northern Minnesota. The orthophotos are 0.5 meter ground sample distance (GSD) and are in UTM Zone 15, NAD83 (meters). The tiling format of the imagery is based on a 3.75' x 3.75' quarter quadrangle with a 150 meter buffer on all four sides. This dataset includes 969 digital orthophoto quarter quadrangles (DOQQs) in GeoTiff format with an associated world file, and this metadata file. The data is available online as a web mapping service (WMS). All imagery was collected by Keystone Aerial Surveys Inc with a Vexcel UltraCamX camera from an altitude of approximately 24,000 feet. All imagery was processed by Keystone using the camera manufacturer's software, Inpho's photogrammetry suite and Keystone-created software. Funding for this data was provided by the Minnesota Natural Heritage Fund, the Minnesota Clean Water Legacy Act, The Environmental and Natural Resources Trust Fund, St. Louis County, the Coastal Zone Management Program, and the National Geospatial Intelligence Agency.</Abstract>
<CRS>EPSG:26915</CRS>
<EX_GeographicBoundingBox>
<westBoundLongitude>-93.13</westBoundLongitude>
<eastBoundLongitude>-89.39</eastBoundLongitude>
<southBoundLatitude>46.57</southBoundLatitude>
<northBoundLatitude>48.69</northBoundLatitude>
</EX_GeographicBoundingBox>
<BoundingBox CRS="EPSG:26915" minx="490342.25" miny="5163314.75" maxx="765986.25" maxy="5392901.75" resx="0.5" resy="0.5"/>
<MetadataURL type="FGDC">
<Format>text/html</Format>
<OnlineResource xmlns:xlink="http://www.w3.org/1999/xlink" xlink:href="http://www.mngeo.state.mn.us/chouse/metadata/ne2009_doqq_50cm.html"/>
</MetadataURL>
<MaxScaleDenominator>75000000</MaxScaleDenominator>
</Layer>
<Layer queryable="0" opaque="1">
<Name>bwca09</Name>
<Title>2009 color BWCA border</Title>
<Abstract>An orthoimage (DOQ) is remotely sensed image data in which displacement of features in the image caused by terrain relief and sensor orientation have been mathematically removed. Orthoimagery combines the image characteristics of a photograph with the geometric qualities of a map. For this dataset, the natural color orthoimages were produced at 0.3-meter pixel resolution (approximately 1-foot). The design accuracy is estimated not to exceed 6 meter horizontal RMSE for locations within the United States. Each orthoimage provides imagery for a 1500-meter by 1500-meter block on the ground. The projected coordinate system is UTM with a NAD83 datum, spheroid GRS80. There is no image overlap between adjacent files. The naming convention is based on the U.S. National Grid (USNG), taking the coordinates of the SW corner of the orthoimage. --------------------------- Note: This metadata record was created by the Minnesota Geospatial Information Office (MnGeo) based on the metadata provided by 3001, Inc. for individual Zone 15 tiles. It describes the layers that MnGeo created for its WMS service from the tiled dataset. ---------------------------</Abstract>
<CRS>EPSG:26915</CRS>
<EX_GeographicBoundingBox>
<westBoundLongitude>-92.21</westBoundLongitude>
<eastBoundLongitude>-89.94</eastBoundLongitude>
<southBoundLatitude>47.57</southBoundLatitude>
<northBoundLatitude>48.52</northBoundLatitude>
</EX_GeographicBoundingBox>
<BoundingBox CRS="EPSG:26915" minx="559500" miny="5272497.6" maxx="726043.2" maxy="5374528.8" resx="0.3" resy="0.3"/>
<MetadataURL type="FGDC">
<Format>text/html</Format>
<OnlineResource xmlns:xlink="http://www.w3.org/1999/xlink" xlink:href="http://www.mngeo.state.mn.us/chouse/metadata/doq_nwborder09_z15.html"/>
</MetadataURL>
<MaxScaleDenominator>75000000</MaxScaleDenominator>
</Layer>
<Layer queryable="0" opaque="1">
<Name>dulclr09</Name>
<Title>2009 color Duluth</Title>
<Abstract>This dataset contains 4 Band (RGBI) digital orthophoto imagery of the Big Fork and Little Fork watersheds (most of Koochiching county, northern Itasca county, the middle portion of St. Louis county), and southeast St. Louis County (Duluth-Superior) in northern Minnesota. The orthophotos are 0.3 meter ground sample distance (GSD) and are in UTM Zone 15, NAD83 (meters). The tiling format of the imagery is based on a 3.75' x 3.75' quarter quadrangle with a 150 meter buffer on all four sides. The dataset includes 614 digital orthophoto quarter quadrangles (DOQQs) in GeoTiff format with an associated world file, and this metadata file. The data is available online as a web mapping service (WMS). All imagery was collected by Keystone Aerial Surveys Inc with a Vexcel UltraCamX camera from an altitude of approximately 15,500 feet. All imagery was processed by Keystone using the camera manufacturer's software, Inpho's photogrammetry suite and Keystone-created software. Funding for this data was provided by the Minnesota Natural Heritage Fund, the Minnesota Clean Water Legacy Act, The Environmental and Natural Resources Trust Fund, St. Louis County, the Coastal Zone Management Program, and the National Geospatial Intelligence Agency.</Abstract>
<CRS>EPSG:26915</CRS>
<EX_GeographicBoundingBox>
<westBoundLongitude>-92.45</westBoundLongitude>
<eastBoundLongitude>-91.74</eastBoundLongitude>
<southBoundLatitude>46.62</southBoundLatitude>
<northBoundLatitude>47.26</northBoundLatitude>
</EX_GeographicBoundingBox>
<BoundingBox CRS="EPSG:26915" minx="542462.7" miny="5163473.7" maxx="595449.6" maxy="5233922.4" resx="0.3" resy="0.3"/>
<MetadataURL type="FGDC">
<Format>text/html</Format>
<OnlineResource xmlns:xlink="http://www.w3.org/1999/xlink" xlink:href="http://www.mngeo.state.mn.us/chouse/metadata/ne2009_doqq_30cm.html"/>
</MetadataURL>
<MaxScaleDenominator>75000000</MaxScaleDenominator>
</Layer>
<Layer queryable="0" opaque="1">
<Name>dul09</Name>
<Title>2009 color Duluth shore</Title>
<Abstract>An orthoimage (DOQ) is remotely sensed image data in which displacement of features in the image caused by terrain relief and sensor orientation have been mathematically removed. Orthoimagery combines the image characteristics of a photograph with the geometric qualities of a map. For this dataset, the natural color orthoimages were produced at 0.3-meter pixel resolution (approximately 1-foot). The design accuracy is estimated not to exceed 6 meter horizontal RMSE for locations within the United States. Each orthoimage provides imagery for a 1500-meter by 1500-meter block on the ground. The projected coordinate system is UTM with a NAD83 datum, spheroid GRS80. There is no image overlap between adjacent files. The naming convention is based on the U.S. National Grid (USNG), taking the coordinates of the SW corner of the orthoimage. --------------------------- Note: This metadata record was created by the Minnesota Geospatial Information Office (MnGeo) based on the metadata provided by 3001, Inc. for individual Zone 15 tiles. It describes the layers that MnGeo created for its WMS service from the tiled dataset. ---------------------------</Abstract>
<CRS>EPSG:26915</CRS>
<EX_GeographicBoundingBox>
<westBoundLongitude>-92.36</westBoundLongitude>
<eastBoundLongitude>-91.64</eastBoundLongitude>
<southBoundLatitude>46.50</southBoundLatitude>
<northBoundLatitude>47.15</northBoundLatitude>
</EX_GeographicBoundingBox>
<BoundingBox CRS="EPSG:26915" minx="549000" miny="5150930.4" maxx="603031.2" maxy="5221550.4" resx="0.3" resy="0.3"/>
<MetadataURL type="FGDC">
<Format>text/html</Format>
<OnlineResource xmlns:xlink="http://www.w3.org/1999/xlink" xlink:href="http://www.mngeo.state.mn.us/chouse/metadata/doq_nwborder09_z15.html"/>
</MetadataURL>
<MaxScaleDenominator>75000000</MaxScaleDenominator>
</Layer>
<Layer queryable="0" opaque="1">
<Name>iroy09</Name>
<Title>2009 color Isle Royale</Title>
<Abstract>An orthoimage (DOQ) is remotely sensed image data in which displacement of features in the image caused by terrain relief and sensor orientation have been mathematically removed. Orthoimagery combines the image characteristics of a photograph with the geometric qualities of a map. For this dataset, the natural color orthoimages were produced at 0.3-meter pixel resolution (approximately 1-foot). The design accuracy is estimated not to exceed 6 meter horizontal RMSE for locations within the United States. Each orthoimage provides imagery for a 1500-meter by 1500-meter block on the ground. The projected coordinate system is UTM with a NAD83 datum, spheroid GRS80. There is no image overlap between adjacent files. The naming convention is based on the U.S. National Grid (USNG), taking the coordinates of the SW corner of the orthoimage. --------------------------- Note: This metadata record was created by the Minnesota Geospatial Information Office (MnGeo) based on the metadata provided by 3001, Inc. for individual Zone 15 tiles. It describes the layers that MnGeo created for its WMS service from the tiled dataset. ---------------------------</Abstract>
<CRS>EPSG:26915</CRS>
<EX_GeographicBoundingBox>
<westBoundLongitude>-90.05</westBoundLongitude>
<eastBoundLongitude>-88.21</eastBoundLongitude>
<southBoundLatitude>47.66</southBoundLatitude>
<northBoundLatitude>48.50</northBoundLatitude>
</EX_GeographicBoundingBox>
<BoundingBox CRS="EPSG:26915" minx="721449.91691" miny="5288891.906431" maxx="854008.81691" maxy="5376753.206431" resx="0.3" resy="0.3"/>
<MetadataURL type="FGDC">
<Format>text/html</Format>
<OnlineResource xmlns:xlink="http://www.w3.org/1999/xlink" xlink:href="http://www.mngeo.state.mn.us/chouse/metadata/doq_nwborder09_z15.html"/>
</MetadataURL>
<MaxScaleDenominator>75000000</MaxScaleDenominator>
</Layer>
<Layer queryable="0" opaque="1">
<Name>ncclr09</Name>
<Title>2009 color NCentral</Title>
<Abstract>This dataset contains 4 Band (RGBI) digital orthophoto imagery of the Big Fork and Little Fork watersheds (most of Koochiching county, northern Itasca county, the middle portion of St. Louis county), and southeast St. Louis County (Duluth-Superior) in northern Minnesota. The orthophotos are 0.3 meter ground sample distance (GSD) and are in UTM Zone 15, NAD83 (meters). The tiling format of the imagery is based on a 3.75' x 3.75' quarter quadrangle with a 150 meter buffer on all four sides. The dataset includes 614 digital orthophoto quarter quadrangles (DOQQs) in GeoTiff format with an associated world file, and this metadata file. The data is available online as a web mapping service (WMS). All imagery was collected by Keystone Aerial Surveys Inc with a Vexcel UltraCamX camera from an altitude of approximately 15,500 feet. All imagery was processed by Keystone using the camera manufacturer's software, Inpho's photogrammetry suite and Keystone-created software. Funding for this data was provided by the Minnesota Natural Heritage Fund, the Minnesota Clean Water Legacy Act, The Environmental and Natural Resources Trust Fund, St. Louis County, the Coastal Zone Management Program, and the National Geospatial Intelligence Agency.</Abstract>
<CRS>EPSG:26915</CRS>
<EX_GeographicBoundingBox>
<westBoundLongitude>-94.40</westBoundLongitude>
<eastBoundLongitude>-91.79</eastBoundLongitude>
<southBoundLatitude>47.36</southBoundLatitude>
<northBoundLatitude>48.69</northBoundLatitude>
</EX_GeographicBoundingBox>
<BoundingBox CRS="EPSG:26915" minx="396646.65" miny="5246612.25" maxx="589300.65" maxy="5393715.75" resx="0.3" resy="0.3"/>
<MetadataURL type="FGDC">
<Format>text/html</Format>
<OnlineResource xmlns:xlink="http://www.w3.org/1999/xlink" xlink:href="http://www.mngeo.state.mn.us/chouse/metadata/ne2009_doqq_30cm.html"/>
</MetadataURL>
<MaxScaleDenominator>75000000</MaxScaleDenominator>
</Layer>
<Layer queryable="0" opaque="1">
<Name>bord15</Name>
<Title>2009 color NCentral border</Title>
<Abstract>An orthoimage (DOQ) is remotely sensed image data in which displacement of features in the image caused by terrain relief and sensor orientation have been mathematically removed. Orthoimagery combines the image characteristics of a photograph with the geometric qualities of a map. For this dataset, the natural color orthoimages were produced at 0.3-meter pixel resolution (approximately 1-foot). The design accuracy is estimated not to exceed 6 meter horizontal RMSE for locations within the United States. Each orthoimage provides imagery for a 1500-meter by 1500-meter block on the ground. The projected coordinate system is UTM with a NAD83 datum, spheroid GRS80. There is no image overlap between adjacent files. The naming convention is based on the U.S. National Grid (USNG), taking the coordinates of the SW corner of the orthoimage. --------------------------- Note: This metadata record was created by the Minnesota Geospatial Information Office (MnGeo) based on the metadata provided by 3001, Inc. for individual Zone 15 tiles. It describes the layers that MnGeo created for its WMS service from the tiled dataset. ---------------------------</Abstract>
<CRS>EPSG:26915</CRS>
<EX_GeographicBoundingBox>
<westBoundLongitude>-96.07</westBoundLongitude>
<eastBoundLongitude>-92.18</eastBoundLongitude>
<southBoundLatitude>47.74</southBoundLatitude>
<northBoundLatitude>49.56</northBoundLatitude>
</EX_GeographicBoundingBox>
<BoundingBox CRS="EPSG:26915" minx="277500" miny="5291932.8" maxx="559627.2" maxy="5490000" resx="0.3" resy="0.3"/>
<MetadataURL type="FGDC">
<Format>text/html</Format>
<OnlineResource xmlns:xlink="http://www.w3.org/1999/xlink" xlink:href="http://www.mngeo.state.mn.us/chouse/metadata/doq_nwborder09_z15.html"/>
</MetadataURL>
<MaxScaleDenominator>75000000</MaxScaleDenominator>
</Layer>
<Layer queryable="0" opaque="1">
<Name>sbay09</Name>
<Title>2009 color north shore</Title>
<Abstract>An orthoimage (DOQ) is remotely sensed image data in which displacement of features in the image caused by terrain relief and sensor orientation have been mathematically removed. Orthoimagery combines the image characteristics of a photograph with the geometric qualities of a map. For this dataset, the natural color orthoimages were produced at 0.3-meter pixel resolution (approximately 1-foot). The design accuracy is estimated not to exceed 6 meter horizontal RMSE for locations within the United States. Each orthoimage provides imagery for a 1500-meter by 1500-meter block on the ground. The projected coordinate system is UTM with a NAD83 datum, spheroid GRS80. There is no image overlap between adjacent files. The naming convention is based on the U.S. National Grid (USNG), taking the coordinates of the SW corner of the orthoimage. --------------------------- Note: This metadata record was created by the Minnesota Geospatial Information Office (MnGeo) based on the metadata provided by 3001, Inc. for individual Zone 15 tiles. It describes the layers that MnGeo created for its WMS service from the tiled dataset. ---------------------------</Abstract>
<CRS>EPSG:26915</CRS>
<EX_GeographicBoundingBox>
<westBoundLongitude>-91.76</westBoundLongitude>
<eastBoundLongitude>-90.61</eastBoundLongitude>
<southBoundLatitude>46.97</southBoundLatitude>
<northBoundLatitude>47.71</northBoundLatitude>
</EX_GeographicBoundingBox>
<BoundingBox CRS="EPSG:26915" minx="594000" miny="5204988" maxx="679519.2" maxy="5284516.8" resx="0.3" resy="0.3"/>
<MetadataURL type="FGDC">
<Format>text/html</Format>
<OnlineResource xmlns:xlink="http://www.w3.org/1999/xlink" xlink:href="http://www.mngeo.state.mn.us/chouse/metadata/doq_nwborder09_z15.html"/>
</MetadataURL>
<MaxScaleDenominator>75000000</MaxScaleDenominator>
</Layer>
<Layer queryable="0" opaque="1">
<Name>ndak09</Name>
<Title>2009 color nw border</Title>
<Abstract>An orthoimage (DOQ) is remotely sensed image data in which displacement of features in the image caused by terrain relief and sensor orientation have been mathematically removed. Orthoimagery combines the image characteristics of a photograph with the geometric qualities of a map. For this dataset, the natural color orthoimages were produced at 0.3-meter pixel resolution (approximately 1-foot). The design accuracy is estimated not to exceed 6 meter horizontal RMSE for locations within the United States. Each orthoimage provides imagery for a 1500-meter by 1500-meter block on the ground. The projected coordinate system is UTM with a NAD83 datum, spheroid GRS80. There is no image overlap between adjacent files. The naming convention is based on the U.S. National Grid (USNG), taking the coordinates of the SW corner of the orthoimage. --------------------------- Note: This metadata record was created by the Minnesota Geospatial Information Office (MnGeo) based on the metadata provided by 3001, Inc. for individual Zone 15 tiles. It describes the layers that MnGeo created for its WMS service from the tiled dataset. ---------------------------</Abstract>
<CRS>EPSG:26915</CRS>
<EX_GeographicBoundingBox>
<westBoundLongitude>-99.08</westBoundLongitude>
<eastBoundLongitude>-95.95</eastBoundLongitude>
<southBoundLatitude>48.43</southBoundLatitude>
<northBoundLatitude>49.28</northBoundLatitude>
</EX_GeographicBoundingBox>
<BoundingBox CRS="EPSG:26915" minx="56929.059495" miny="5381962.419042" maxx="282494.859495" maxy="5462453.019042" resx="0.3" resy="0.3"/>
<MetadataURL type="FGDC">
<Format>text/html</Format>
<OnlineResource xmlns:xlink="http://www.w3.org/1999/xlink" xlink:href="http://www.mngeo.state.mn.us/chouse/metadata/doq_nwborder09_z15.html"/>
</MetadataURL>
<MaxScaleDenominator>75000000</MaxScaleDenominator>
</Layer>
<Layer queryable="0" opaque="1">
<Name>wisc09</Name>
<Title>2009 color south shore (WI)</Title>
<Abstract>An orthoimage (DOQ) is remotely sensed image data in which displacement of features in the image caused by terrain relief and sensor orientation have been mathematically removed. Orthoimagery combines the image characteristics of a photograph with the geometric qualities of a map. For this dataset, the natural color orthoimages were produced at 0.3-meter pixel resolution (approximately 1-foot). The design accuracy is estimated not to exceed 6 meter horizontal RMSE for locations within the United States. Each orthoimage provides imagery for a 1500-meter by 1500-meter block on the ground. The projected coordinate system is UTM with a NAD83 datum, spheroid GRS80. There is no image overlap between adjacent files. The naming convention is based on the U.S. National Grid (USNG), taking the coordinates of the SW corner of the orthoimage. --------------------------- Note: This metadata record was created by the Minnesota Geospatial Information Office (MnGeo) based on the metadata provided by 3001, Inc. for individual Zone 15 tiles. It describes the layers that MnGeo created for its WMS service from the tiled dataset. ---------------------------</Abstract>
<CRS>EPSG:26915</CRS>
<EX_GeographicBoundingBox>
<westBoundLongitude>-91.66</westBoundLongitude>
<eastBoundLongitude>-89.96</eastBoundLongitude>
<southBoundLatitude>46.41</southBoundLatitude>
<northBoundLatitude>47.15</northBoundLatitude>
</EX_GeographicBoundingBox>
<BoundingBox CRS="EPSG:26915" minx="602935.2" miny="5143471.2" maxx="730540.8" maxy="5223000" resx="0.3" resy="0.3"/>
<MetadataURL type="FGDC">
<Format>text/html</Format>
<OnlineResource xmlns:xlink="http://www.w3.org/1999/xlink" xlink:href="http://www.mngeo.state.mn.us/chouse/metadata/doq_nwborder09_z15.html"/>
</MetadataURL>
<MaxScaleDenominator>75000000</MaxScaleDenominator>
</Layer>
<Layer queryable="0" opaque="1">
<Name>murray11ir</Name>
<Title>2011 cir Murray</Title>
<CRS>EPSG:26915</CRS>
<EX_GeographicBoundingBox>
<westBoundLongitude>-96.11</westBoundLongitude>
<eastBoundLongitude>-95.43</eastBoundLongitude>
<southBoundLatitude>43.82</southBoundLatitude>
<northBoundLatitude>44.23</northBoundLatitude>
</EX_GeographicBoundingBox>
<BoundingBox CRS="EPSG:26915" minx="251222.674635" miny="4856212.175716" maxx="304934.374635" maxy="4900016.675716" resx="0.3" resy="0.3"/>
<MetadataURL type="FGDC">
<Format>text/html</Format>
<OnlineResource xmlns:xlink="http://www.w3.org/1999/xlink" xlink:href="http://www.mngeo.state.mn.us/chouse"/>
</MetadataURL>
<MaxScaleDenominator>75000000</MaxScaleDenominator>
</Layer>
<Layer queryable="0" opaque="1">
<Name>south11ir</Name>
<Title>2011 cir south MN</Title>
<CRS>EPSG:26915</CRS>
<EX_GeographicBoundingBox>
<westBoundLongitude>-96.88</westBoundLongitude>
<eastBoundLongitude>-91.12</eastBoundLongitude>
<southBoundLatitude>43.38</southBoundLatitude>
<northBoundLatitude>45.68</northBoundLatitude>
</EX_GeographicBoundingBox>
<BoundingBox CRS="EPSG:26915" minx="197570" miny="4809309.5" maxx="646554.5" maxy="5059687.5" resx="0.5" resy="0.5"/>
<MetadataURL type="FGDC">
<Format>text/html</Format>
<OnlineResource xmlns:xlink="http://www.w3.org/1999/xlink" xlink:href="http://www.mngeo.state.mn.us/chouse/metadata/southmn2011_doqq_50cm.html"/>
</MetadataURL>
<MaxScaleDenominator>75000000</MaxScaleDenominator>
</Layer>
<Layer queryable="0" opaque="1">
<Name>murray11</Name>
<Title>2011 color Murray</Title>
<CRS>EPSG:26915</CRS>
<EX_GeographicBoundingBox>
<westBoundLongitude>-96.11</westBoundLongitude>
<eastBoundLongitude>-95.43</eastBoundLongitude>
<southBoundLatitude>43.82</southBoundLatitude>
<northBoundLatitude>44.23</northBoundLatitude>
</EX_GeographicBoundingBox>
<BoundingBox CRS="EPSG:26915" minx="251222.674635" miny="4856212.175716" maxx="304934.374635" maxy="4900016.675716" resx="0.3" resy="0.3"/>
<MetadataURL type="FGDC">
<Format>text/html</Format>
<OnlineResource xmlns:xlink="http://www.w3.org/1999/xlink" xlink:href="http://www.mngeo.state.mn.us/chouse"/>
</MetadataURL>
<MaxScaleDenominator>75000000</MaxScaleDenominator>
</Layer>
<Layer queryable="0" opaque="1">
<Name>south11</Name>
<Title>2011 color south MN</Title>
<CRS>EPSG:26915</CRS>
<EX_GeographicBoundingBox>
<westBoundLongitude>-96.88</westBoundLongitude>
<eastBoundLongitude>-91.12</eastBoundLongitude>
<southBoundLatitude>43.38</southBoundLatitude>
<northBoundLatitude>45.68</northBoundLatitude>
</EX_GeographicBoundingBox>
<BoundingBox CRS="EPSG:26915" minx="197570" miny="4809309.5" maxx="646554.5" maxy="5059687.5" resx="0.5" resy="0.5"/>
<MetadataURL type="FGDC">
<Format>text/html</Format>
<OnlineResource xmlns:xlink="http://www.w3.org/1999/xlink" xlink:href="http://www.mngeo.state.mn.us/chouse/metadata/southmn2011_doqq_50cm.html"/>
</MetadataURL>
<MaxScaleDenominator>75000000</MaxScaleDenominator>
</Layer>
<Layer queryable="0" opaque="1">
<Name>fallcir11</Name>
<Title>2011 fall cir EC,SE</Title>
<CRS>EPSG:26915</CRS>
<EX_GeographicBoundingBox>
<westBoundLongitude>-94.41</westBoundLongitude>
<eastBoundLongitude>-91.07</eastBoundLongitude>
<southBoundLatitude>43.49</southBoundLatitude>
<northBoundLatitude>47.06</northBoundLatitude>
</EX_GeographicBoundingBox>
<BoundingBox CRS="EPSG:26915" minx="393027.375" miny="4816440" maxx="646549.875" maxy="5212424.5" resx="0.5" resy="0.5"/>
<MetadataURL type="FGDC">
<Format>text/html</Format>
<OnlineResource xmlns:xlink="http://www.w3.org/1999/xlink" xlink:href="http://www.mngeo.state.mn.us/chouse/metadata/dnr_fall_doq2011.html"/>
</MetadataURL>
<MaxScaleDenominator>75000000</MaxScaleDenominator>
</Layer>
<Layer queryable="0" opaque="1">
<Name>fall11</Name>
<Title>2011 fall color EC,SE</Title>
<CRS>EPSG:26915</CRS>
<EX_GeographicBoundingBox>
<westBoundLongitude>-94.41</westBoundLongitude>
<eastBoundLongitude>-91.07</eastBoundLongitude>
<southBoundLatitude>43.49</southBoundLatitude>
<northBoundLatitude>47.06</northBoundLatitude>
</EX_GeographicBoundingBox>
<BoundingBox CRS="EPSG:26915" minx="393027.375" miny="4816440" maxx="646549.875" maxy="5212424.5" resx="0.5" resy="0.5"/>
<MetadataURL type="FGDC">
<Format>text/html</Format>
<OnlineResource xmlns:xlink="http://www.w3.org/1999/xlink" xlink:href="http://www.mngeo.state.mn.us/chouse/metadata/dnr_fall_doq2011.html"/>
</MetadataURL>
<MaxScaleDenominator>75000000</MaxScaleDenominator>
</Layer>
<Layer queryable="0" opaque="1">
<Name>fallcir12</Name>
<Title>2012 fall cir Central</Title>
<CRS>EPSG:26915</CRS>
<EX_GeographicBoundingBox>
<westBoundLongitude>-96.10</westBoundLongitude>
<eastBoundLongitude>-93.73</eastBoundLongitude>
<southBoundLatitude>46.03</southBoundLatitude>
<northBoundLatitude>47.65</northBoundLatitude>
</EX_GeographicBoundingBox>
<BoundingBox CRS="EPSG:26915" minx="267398.25" miny="5101518.75" maxx="443629.25" maxy="5278207.75" resx="0.5" resy="0.5"/>
<MetadataURL type="FGDC">
<Format>text/html</Format>
<OnlineResource xmlns:xlink="http://www.w3.org/1999/xlink" xlink:href="http://www.mngeo.state.mn.us/chouse/metadata/dnr_fall_doq2012.html"/>
</MetadataURL>
<MaxScaleDenominator>75000000</MaxScaleDenominator>
</Layer>
<Layer queryable="0" opaque="1">
<Name>fall12</Name>
<Title>2012 fall color Central</Title>
<CRS>EPSG:26915</CRS>
<EX_GeographicBoundingBox>
<westBoundLongitude>-96.10</westBoundLongitude>
<eastBoundLongitude>-93.73</eastBoundLongitude>
<southBoundLatitude>46.03</southBoundLatitude>
<northBoundLatitude>47.65</northBoundLatitude>
</EX_GeographicBoundingBox>
<BoundingBox CRS="EPSG:26915" minx="267398.25" miny="5101518.75" maxx="443629.25" maxy="5278207.75" resx="0.5" resy="0.5"/>
<MetadataURL type="FGDC">
<Format>text/html</Format>
<OnlineResource xmlns:xlink="http://www.w3.org/1999/xlink" xlink:href="http://www.mngeo.state.mn.us/chouse/metadata/dnr_fall_doq2012.html"/>
</MetadataURL>
<MaxScaleDenominator>75000000</MaxScaleDenominator>
</Layer>
<Layer queryable="0" opaque="1">
<Name>meek13cir</Name>
<Title>2013 cir Meeker</Title>
<CRS>EPSG:26915</CRS>
<EX_GeographicBoundingBox>
<westBoundLongitude>-94.83</westBoundLongitude>
<eastBoundLongitude>-94.24</eastBoundLongitude>
<southBoundLatitude>44.87</southBoundLatitude>
<northBoundLatitude>45.45</northBoundLatitude>
</EX_GeographicBoundingBox>
<BoundingBox CRS="EPSG:26915" minx="356680" miny="4969931" maxx="402373" maxy="5033247.5" resx="0.5" resy="0.5"/>
<MaxScaleDenominator>75000000</MaxScaleDenominator>
</Layer>
<Layer queryable="0" opaque="1">
<Name>nc13ftcir</Name>
<Title>2013 cir North 1 ft</Title>
<CRS>EPSG:26915</CRS>
<EX_GeographicBoundingBox>
<westBoundLongitude>-96.95</westBoundLongitude>
<eastBoundLongitude>-92.22</eastBoundLongitude>
<southBoundLatitude>45.44</southBoundLatitude>
<northBoundLatitude>47.94</northBoundLatitude>
</EX_GeographicBoundingBox>
<BoundingBox CRS="EPSG:26915" minx="204744.9" miny="5038242" maxx="557987.1" maxy="5309983.8" resx="0.3" resy="0.3"/>
<MaxScaleDenominator>75000000</MaxScaleDenominator>
</Layer>
<Layer queryable="0" opaque="1">
<Name>nc13hmcir</Name>
<Title>2013 cir NW 50 cm</Title>
<CRS>EPSG:26915</CRS>
<EX_GeographicBoundingBox>
<westBoundLongitude>-97.30</westBoundLongitude>
<eastBoundLongitude>-92.19</eastBoundLongitude>
<southBoundLatitude>46.05</southBoundLatitude>
<northBoundLatitude>49.46</northBoundLatitude>
</EX_GeographicBoundingBox>
<BoundingBox CRS="EPSG:26915" minx="187678" miny="5107624" maxx="558339" maxy="5478693" resx="0.5" resy="0.5"/>
<MaxScaleDenominator>75000000</MaxScaleDenominator>
</Layer>
<Layer queryable="0" opaque="1">
<Name>meek13</Name>
<Title>2013 color Meeker</Title>
<CRS>EPSG:26915</CRS>
<EX_GeographicBoundingBox>
<westBoundLongitude>-94.83</westBoundLongitude>
<eastBoundLongitude>-94.24</eastBoundLongitude>
<southBoundLatitude>44.87</southBoundLatitude>
<northBoundLatitude>45.45</northBoundLatitude>
</EX_GeographicBoundingBox>
<BoundingBox CRS="EPSG:26915" minx="356680" miny="4969931" maxx="402373" maxy="5033247.5" resx="0.5" resy="0.5"/>
<MaxScaleDenominator>75000000</MaxScaleDenominator>
</Layer>
<Layer queryable="0" opaque="1">
<Name>nc13ft</Name>
<Title>2013 color North 1 ft</Title>
<CRS>EPSG:26915</CRS>
<EX_GeographicBoundingBox>
<westBoundLongitude>-96.95</westBoundLongitude>
<eastBoundLongitude>-92.22</eastBoundLongitude>
<southBoundLatitude>45.44</southBoundLatitude>
<northBoundLatitude>47.94</northBoundLatitude>
</EX_GeographicBoundingBox>
<BoundingBox CRS="EPSG:26915" minx="204744.9" miny="5038242" maxx="557987.1" maxy="5309983.8" resx="0.3" resy="0.3"/>
<MaxScaleDenominator>75000000</MaxScaleDenominator>
</Layer>
<Layer queryable="0" opaque="1">
<Name>nc13hm</Name>
<Title>2013 color NW 50 cm</Title>
<CRS>EPSG:26915</CRS>
<EX_GeographicBoundingBox>
<westBoundLongitude>-97.30</westBoundLongitude>
<eastBoundLongitude>-92.19</eastBoundLongitude>
<southBoundLatitude>46.05</southBoundLatitude>
<northBoundLatitude>49.46</northBoundLatitude>
</EX_GeographicBoundingBox>
<BoundingBox CRS="EPSG:26915" minx="187678" miny="5107624" maxx="558339" maxy="5478693" resx="0.5" resy="0.5"/>
<MaxScaleDenominator>75000000</MaxScaleDenominator>
</Layer>
<Layer queryable="0" opaque="1">
<Name>mc14ir</Name>
<Title>2014 cir McLeod</Title>
<CRS>EPSG:26915</CRS>
<EX_GeographicBoundingBox>
<westBoundLongitude>-94.52</westBoundLongitude>
<eastBoundLongitude>-93.99</eastBoundLongitude>
<southBoundLatitude>44.62</southBoundLatitude>
<northBoundLatitude>45.00</northBoundLatitude>
</EX_GeographicBoundingBox>
<BoundingBox CRS="EPSG:26915" minx="380142" miny="4941464.15" maxx="421516.65" maxy="4983069.2" resx="0.15" resy="0.15"/>
<MaxScaleDenominator>75000000</MaxScaleDenominator>
</Layer>
<Layer queryable="0" opaque="1">
<Name>nw14cir</Name>
<Title>2014 cir NW 50 cm</Title>
<CRS>EPSG:26915</CRS>
<EX_GeographicBoundingBox>
<westBoundLongitude>-97.14</westBoundLongitude>
<eastBoundLongitude>-92.21</eastBoundLongitude>
<southBoundLatitude>45.25</southBoundLatitude>
<northBoundLatitude>48.20</northBoundLatitude>
</EX_GeographicBoundingBox>
<BoundingBox CRS="EPSG:26915" minx="191983" miny="5018102" maxx="558336" maxy="5338727" resx="0.5" resy="0.5"/>
<MaxScaleDenominator>75000000</MaxScaleDenominator>
</Layer>
<Layer queryable="0" opaque="1">
<Name>polkcir</Name>
<Title>2014 cir Polk Beltrami 1 ft</Title>
<CRS>EPSG:26915</CRS>
<EX_GeographicBoundingBox>
<westBoundLongitude>-97.23</westBoundLongitude>
<eastBoundLongitude>-94.28</eastBoundLongitude>
<southBoundLatitude>47.31</southBoundLatitude>
<northBoundLatitude>48.59</northBoundLatitude>
</EX_GeographicBoundingBox>
<BoundingBox CRS="EPSG:26915" minx="187629" miny="5247426" maxx="403172.7" maxy="5382480.9" resx="0.3" resy="0.3"/>
<MaxScaleDenominator>75000000</MaxScaleDenominator>
</Layer>
<Layer queryable="0" opaque="1">
<Name>mc14</Name>
<Title>2014 color McLeod</Title>
<CRS>EPSG:26915</CRS>
<EX_GeographicBoundingBox>
<westBoundLongitude>-94.52</westBoundLongitude>
<eastBoundLongitude>-93.99</eastBoundLongitude>
<southBoundLatitude>44.62</southBoundLatitude>
<northBoundLatitude>45.00</northBoundLatitude>
</EX_GeographicBoundingBox>
<BoundingBox CRS="EPSG:26915" minx="380142" miny="4941464.15" maxx="421516.65" maxy="4983069.2" resx="0.15" resy="0.15"/>
<MaxScaleDenominator>75000000</MaxScaleDenominator>
</Layer>
<Layer queryable="0" opaque="1">
<Name>nw14</Name>
<Title>2014 color NW 50 cm</Title>
<CRS>EPSG:26915</CRS>
<EX_GeographicBoundingBox>
<westBoundLongitude>-97.14</westBoundLongitude>
<eastBoundLongitude>-92.21</eastBoundLongitude>
<southBoundLatitude>45.25</southBoundLatitude>
<northBoundLatitude>48.20</northBoundLatitude>
</EX_GeographicBoundingBox>
<BoundingBox CRS="EPSG:26915" minx="191983" miny="5018102" maxx="558336" maxy="5338727" resx="0.5" resy="0.5"/>
<MaxScaleDenominator>75000000</MaxScaleDenominator>
</Layer>
<Layer queryable="0" opaque="1">
<Name>polk</Name>
<Title>2014 color Polk Beltrami 1 ft</Title>
<CRS>EPSG:26915</CRS>
<EX_GeographicBoundingBox>
<westBoundLongitude>-97.23</westBoundLongitude>
<eastBoundLongitude>-94.28</eastBoundLongitude>
<southBoundLatitude>47.31</southBoundLatitude>
<northBoundLatitude>48.59</northBoundLatitude>
</EX_GeographicBoundingBox>
<BoundingBox CRS="EPSG:26915" minx="187660.8" miny="5247374.1" maxx="403127.7" maxy="5382501.6" resx="0.3" resy="0.3"/>
<MaxScaleDenominator>75000000</MaxScaleDenominator>
</Layer>
<Layer queryable="0" opaque="1">
<Name>carl15_9</Name>
<Title>2015 color Carlton 9 in</Title>
<CRS>EPSG:26915</CRS>
<EX_GeographicBoundingBox>
<westBoundLongitude>-93.08</westBoundLongitude>
<eastBoundLongitude>-92.28</eastBoundLongitude>
<southBoundLatitude>46.41</southBoundLatitude>
<northBoundLatitude>46.78</northBoundLatitude>
</EX_GeographicBoundingBox>
<BoundingBox CRS="EPSG:26915" minx="493740.027613" miny="5140019.571337" maxx="555347.689646" maxy="5180572.859092" resx="0.228598" resy="0.228598"/>
<MaxScaleDenominator>75000000</MaxScaleDenominator>
</Layer>
<Layer queryable="0" opaque="1">
<Name>doug16</Name>
<Title>2016 color Douglas 3 in</Title>
<CRS>EPSG:26915</CRS>
<EX_GeographicBoundingBox>
<westBoundLongitude>-95.79</westBoundLongitude>
<eastBoundLongitude>-95.11</eastBoundLongitude>
<southBoundLatitude>45.74</southBoundLatitude>
<northBoundLatitude>46.13</northBoundLatitude>
</EX_GeographicBoundingBox>
<BoundingBox CRS="EPSG:26915" minx="284283.93473" miny="5068378.057549" maxx="336223.75973" maxy="5110895.904949" resx="0.0762" resy="0.0762"/>
<MaxScaleDenominator>75000000</MaxScaleDenominator>
</Layer>
<Layer queryable="0" opaque="1">
<Name>itas18cir</Name>
<Title>2018 cir Itasca 1 ft</Title>
<CRS>EPSG:26915</CRS>
<EX_GeographicBoundingBox>
<westBoundLongitude>-94.45</westBoundLongitude>
<eastBoundLongitude>-93.02</eastBoundLongitude>
<southBoundLatitude>46.99</southBoundLatitude>
<northBoundLatitude>47.92</northBoundLatitude>
</EX_GeographicBoundingBox>
<BoundingBox CRS="EPSG:26915" minx="391552.306695" miny="5204803.371845" maxx="498338.986695" maxy="5306986.352645" resx="0.3048" resy="0.3048"/>
<MaxScaleDenominator>75000000</MaxScaleDenominator>
</Layer>
<Layer queryable="0" opaque="1">
<Name>itas18</Name>
<Title>2018 color Itasca 1 ft</Title>
<CRS>EPSG:26915</CRS>
<EX_GeographicBoundingBox>
<westBoundLongitude>-94.45</westBoundLongitude>
<eastBoundLongitude>-93.02</eastBoundLongitude>
<southBoundLatitude>46.99</southBoundLatitude>
<northBoundLatitude>47.92</northBoundLatitude>
</EX_GeographicBoundingBox>
<BoundingBox CRS="EPSG:26915" minx="391552.306695" miny="5204803.371845" maxx="498338.986695" maxy="5306986.352645" resx="0.3048" resy="0.3048"/>
<MaxScaleDenominator>75000000</MaxScaleDenominator>
</Layer>
<Layer queryable="0" opaque="1">
<Name>carl19cir</Name>
<Title>2019 cir Carlton 6 in</Title>
<CRS>EPSG:26915</CRS>
<EX_GeographicBoundingBox>
<westBoundLongitude>-93.07</westBoundLongitude>
<eastBoundLongitude>-92.29</eastBoundLongitude>
<southBoundLatitude>46.41</southBoundLatitude>
<northBoundLatitude>46.77</northBoundLatitude>
</EX_GeographicBoundingBox>
<BoundingBox CRS="EPSG:26915" minx="494478.4" miny="5139946.4" maxx="554500" maxy="5180000" resx="0.15" resy="0.15"/>
<MaxScaleDenominator>75000000</MaxScaleDenominator>
</Layer>
<Layer queryable="0" opaque="1">
<Name>carl19</Name>
<Title>2019 color Carlton 6 in</Title>
<CRS>EPSG:26915</CRS>
<EX_GeographicBoundingBox>
<westBoundLongitude>-93.07</westBoundLongitude>
<eastBoundLongitude>-92.29</eastBoundLongitude>
<southBoundLatitude>46.41</southBoundLatitude>
<northBoundLatitude>46.77</northBoundLatitude>
</EX_GeographicBoundingBox>
<BoundingBox CRS="EPSG:26915" minx="494500" miny="5139946.4" maxx="554521.6" maxy="5180000" resx="0.15" resy="0.15"/>
<MaxScaleDenominator>75000000</MaxScaleDenominator>
</Layer>
<Layer queryable="0" opaque="1">
<Name>lake19</Name>
<Title>2019 color Lake 6 in</Title>
<CRS>EPSG:26915</CRS>
<EX_GeographicBoundingBox>
<westBoundLongitude>-91.84</westBoundLongitude>
<eastBoundLongitude>-90.98</eastBoundLongitude>
<southBoundLatitude>46.91</southBoundLatitude>
<northBoundLatitude>48.21</northBoundLatitude>
</EX_GeographicBoundingBox>
<BoundingBox CRS="EPSG:26915" minx="588080" miny="5197582.912" maxx="650419.456" maxy="5340120" resx="0.152" resy="0.152"/>
<MaxScaleDenominator>75000000</MaxScaleDenominator>
</Layer>
<Layer queryable="0" opaque="1">
<Name>steele19</Name>
<Title>2019 color Steele 6 in</Title>
<CRS>EPSG:26915</CRS>
<EX_GeographicBoundingBox>
<westBoundLongitude>-93.42</westBoundLongitude>
<eastBoundLongitude>-93.03</eastBoundLongitude>
<southBoundLatitude>43.84</southBoundLatitude>
<northBoundLatitude>44.20</northBoundLatitude>
</EX_GeographicBoundingBox>
<BoundingBox CRS="EPSG:26915" minx="466674.742131" miny="4854210.206728" maxx="497583.664092" maxy="4894595.957617" resx="0.152341" resy="0.152341"/>
<MaxScaleDenominator>75000000</MaxScaleDenominator>
</Layer>
<Layer queryable="0" opaque="1">
<Name>belt20cir</Name>
<Title>2020 cir Beltrami 9 in</Title>
<CRS>EPSG:26915</CRS>
<EX_GeographicBoundingBox>
<westBoundLongitude>-95.65</westBoundLongitude>
<eastBoundLongitude>-94.35</eastBoundLongitude>
<southBoundLatitude>47.35</southBoundLatitude>
<northBoundLatitude>48.59</northBoundLatitude>
</EX_GeographicBoundingBox>
<BoundingBox CRS="EPSG:26915" minx="304358.519159" miny="5247268.015821" maxx="398453.250959" maxy="5382583.213821" resx="0.2286" resy="0.2286"/>
<MaxScaleDenominator>75000000</MaxScaleDenominator>
</Layer>
<Layer queryable="0" opaque="1">
<Name>belt20</Name>
<Title>2020 color Beltrami 9 in</Title>
<CRS>EPSG:26915</CRS>
<EX_GeographicBoundingBox>
<westBoundLongitude>-95.65</westBoundLongitude>
<eastBoundLongitude>-94.35</eastBoundLongitude>
<southBoundLatitude>47.35</southBoundLatitude>
<northBoundLatitude>48.59</northBoundLatitude>
</EX_GeographicBoundingBox>
<BoundingBox CRS="EPSG:26915" minx="304358.519159" miny="5247268.015821" maxx="398453.250959" maxy="5382583.213821" resx="0.2286" resy="0.2286"/>
<MaxScaleDenominator>75000000</MaxScaleDenominator>
</Layer>
<Layer queryable="0" opaque="1">
<Name>kooc20</Name>
<Title>2020 color Koochiching 1 ft</Title>
<CRS>EPSG:26915</CRS>
<EX_GeographicBoundingBox>
<westBoundLongitude>-94.46</westBoundLongitude>
<eastBoundLongitude>-93.06</eastBoundLongitude>
<southBoundLatitude>47.82</southBoundLatitude>
<northBoundLatitude>48.73</northBoundLatitude>
</EX_GeographicBoundingBox>
<BoundingBox CRS="EPSG:26915" minx="392614.16561" miny="5297673.581769" maxx="495768.456866" maxy="5397707.765506" resx="0.304698" resy="0.304698"/>
<MaxScaleDenominator>75000000</MaxScaleDenominator>
</Layer>
<Layer queryable="0" opaque="1">
<Name>lyon20</Name>
<Title>2020 color Lyon 3 in</Title>
<CRS>EPSG:26915</CRS>
<EX_GeographicBoundingBox>
<westBoundLongitude>-96.12</westBoundLongitude>
<eastBoundLongitude>-95.57</eastBoundLongitude>
<southBoundLatitude>44.18</southBoundLatitude>
<northBoundLatitude>44.65</northBoundLatitude>
</EX_GeographicBoundingBox>
<BoundingBox CRS="EPSG:26915" minx="252531.708566" miny="4896284.365476" maxx="294756.455804" maxy="4947601.018763" resx="0.076213" resy="0.076213"/>
<MaxScaleDenominator>75000000</MaxScaleDenominator>
</Layer>
<Layer queryable="0" opaque="1">
<Name>carlton21</Name>
<Title>2021 color Carlton 6 in</Title>
<CRS>EPSG:26915</CRS>
<EX_GeographicBoundingBox>
<westBoundLongitude>-93.07</westBoundLongitude>
<eastBoundLongitude>-92.29</eastBoundLongitude>
<southBoundLatitude>46.41</southBoundLatitude>
<northBoundLatitude>46.77</northBoundLatitude>
</EX_GeographicBoundingBox>
<BoundingBox CRS="EPSG:26915" minx="494777.652198" miny="5140308.6568" maxx="554466.811515" maxy="5180031.356212" resx="0.152332" resy="0.152332"/>
<MaxScaleDenominator>75000000</MaxScaleDenominator>
</Layer>
<Layer queryable="0" opaque="1">
<Name>lesueur21</Name>
<Title>2021 color Le Sueur 3 in</Title>
<CRS>EPSG:26915</CRS>
<EX_GeographicBoundingBox>
<westBoundLongitude>-94.03</westBoundLongitude>
<eastBoundLongitude>-93.52</eastBoundLongitude>
<southBoundLatitude>44.19</southBoundLatitude>
<northBoundLatitude>44.55</northBoundLatitude>
</EX_GeographicBoundingBox>
<BoundingBox CRS="EPSG:26915" minx="417963.747445" miny="4893620.79395" maxx="458538.593962" maxy="4932785.413324" resx="0.076171" resy="0.076171"/>
<MaxScaleDenominator>75000000</MaxScaleDenominator>
</Layer>
<Layer queryable="0" opaque="1">
<Name>rice21</Name>
<Title>2021 color Rice 6 in</Title>
<CRS>EPSG:26915</CRS>
<EX_GeographicBoundingBox>
<westBoundLongitude>-93.53</westBoundLongitude>
<eastBoundLongitude>-93.03</eastBoundLongitude>
<southBoundLatitude>44.19</southBoundLatitude>
<northBoundLatitude>44.55</northBoundLatitude>
</EX_GeographicBoundingBox>
<BoundingBox CRS="EPSG:26915" minx="457943.025156" miny="4893658.42491" maxx="497473.090967" maxy="4933188.490721" resx="0.152334" resy="0.152334"/>
<MaxScaleDenominator>75000000</MaxScaleDenominator>
</Layer>
<Layer queryable="0" opaque="1">
<Name>doug22</Name>
<Title>2022 color Douglas 2 in</Title>
<CRS>EPSG:26915</CRS>
<EX_GeographicBoundingBox>
<westBoundLongitude>-95.78</westBoundLongitude>
<eastBoundLongitude>-95.12</eastBoundLongitude>
<southBoundLatitude>45.74</southBoundLatitude>
<northBoundLatitude>46.13</northBoundLatitude>
</EX_GeographicBoundingBox>
<BoundingBox CRS="EPSG:26915" minx="285152.565237" miny="5069142.062587" maxx="335014.340037" maxy="5110472.688587" resx="0.0508" resy="0.0508"/>
<MaxScaleDenominator>75000000</MaxScaleDenominator>
</Layer>
<Layer queryable="0" opaque="1">
<Name>steele22</Name>
<Title>2022 color Steele 3 in</Title>
<CRS>EPSG:26915</CRS>
<EX_GeographicBoundingBox>
<westBoundLongitude>-93.41</westBoundLongitude>
<eastBoundLongitude>-93.04</eastBoundLongitude>
<southBoundLatitude>43.85</southBoundLatitude>
<northBoundLatitude>44.20</northBoundLatitude>
</EX_GeographicBoundingBox>
<BoundingBox CRS="EPSG:26915" minx="467232.669964" miny="4854926.900599" maxx="497056.6113" maxy="4894383.098959" resx="0.076166" resy="0.076166"/>
<MaxScaleDenominator>75000000</MaxScaleDenominator>
</Layer>
<Layer queryable="0" opaque="1">
<Name>rice23</Name>
<Title>2023 color Rice 6 in</Title>
<CRS>EPSG:26915</CRS>
<EX_GeographicBoundingBox>
<westBoundLongitude>-93.53</westBoundLongitude>
<eastBoundLongitude>-93.03</eastBoundLongitude>
<southBoundLatitude>44.19</southBoundLatitude>
<northBoundLatitude>44.55</northBoundLatitude>
</EX_GeographicBoundingBox>
<BoundingBox CRS="EPSG:26915" minx="457943.025156" miny="4893658.42491" maxx="497473.090967" maxy="4933188.490721" resx="0.152334" resy="0.152334"/>
<MaxScaleDenominator>75000000</MaxScaleDenominator>
</Layer>
</Layer>
<Layer>
<Title> Twin Cities metro</Title>
<Layer queryable="0" opaque="1">
<Name>bw1997</Name>
<Title>1997 bw 7-county</Title>
<Abstract>This dataset contains 265 digital, black and white orthophoto quarter-quadrangles (DOQs), 3.75' x 3.75', covering the 7 county Twin Cities (Minneapolis and St. Paul) Metropolitan Area in Minnesota. Each CD-ROM contains up to 4 quarter-quadrangles of a USGS 7.5 minute quadrangle, where a quarter-quadrangle is included IF it's coverage includes any portion of the Twin cities 7 county area. The orthophotos are in UTM, Zone 15, NAD83 projection. Each image is approximately 120 Mb, with a .6 meter image pixel, and available in TIFF format. There are a total of 76 CD-ROMs plus one CD-ROM that contains one metadata record for the dataset and a header file (.hdr) for each image. These DOQs were produced using the USGS DOQ specifications except for the scan resolution (pixel size is .6m rather than 1 meter) and the file format. The original imagery was collected at 20,000 ft and centered on USGS quarter-quads. This dataset is available for direct use via the MnGeo Image Server. More information at http://www.mngeo.state.mn.us/chouse/wms/wms_image_server_layers.html</Abstract>
<CRS>EPSG:26915</CRS>
<EX_GeographicBoundingBox>
<westBoundLongitude>-94.08</westBoundLongitude>
<eastBoundLongitude>-92.68</eastBoundLongitude>
<southBoundLatitude>44.43</southBoundLatitude>
<northBoundLatitude>45.44</northBoundLatitude>
</EX_GeographicBoundingBox>
<BoundingBox CRS="EPSG:26915" minx="415490.1" miny="4920146.7" maxx="525138.3" maxy="5032061.7" resx="0.6" resy="0.6"/>
<MetadataURL type="FGDC">
<Format>text/html</Format>
<OnlineResource xmlns:xlink="http://www.w3.org/1999/xlink" xlink:href="http://www.datafinder.org/metadata/orthos1997.html"/>
</MetadataURL>
<MaxScaleDenominator>75000000</MaxScaleDenominator>
</Layer>
<Layer queryable="0" opaque="1">
<Name>bw2000</Name>
<Title>2000 bw 7-county</Title>
<Abstract>This dataset contains 267 black and white digital orthophoto quarter-quadrangles (DOQs), 3.75' x 3.75', covering the 7 county Twin Cities (Minneapolis and St. Paul) Metropolitan Area in Minnesota. Each CD-ROM contains up to 4 quarter-quadrangles of a USGS 7.5 minute quadrangle, where a quarter-quadrangle is included IF it's coverage includes any portion of the Twin cities 7 county area. The orthophotos are in UTM, Zone 15, NAD83 projection. Each image is approximately 115 Mb, with a .6 meter image pixel, and available in TIFF format. There are a total of 78 CD-ROMs. These orthophotos were produced using the USGS DOQ specifications except for the file format and the scan resolution (pixel size is .6m rather than 1 meter). The original imagery was collected at 20,000 ft. and centered on USGS quarter-quads. This dataset is available for direct use via the MnGeo Image Server. More information at http://www.mngeo.state.mn.us/chouse/wms/wms_image_server_layers.html</Abstract>
<CRS>EPSG:26915</CRS>
<EX_GeographicBoundingBox>
<westBoundLongitude>-94.08</westBoundLongitude>
<eastBoundLongitude>-92.68</eastBoundLongitude>
<southBoundLatitude>44.43</southBoundLatitude>
<northBoundLatitude>45.44</northBoundLatitude>
</EX_GeographicBoundingBox>
<BoundingBox CRS="EPSG:26915" minx="415485.3" miny="4920156.3" maxx="525129.9" maxy="5032059.9" resx="0.6" resy="0.6"/>
<MetadataURL type="FGDC">
<Format>text/html</Format>
<OnlineResource xmlns:xlink="http://www.w3.org/1999/xlink" xlink:href="http://www.datafinder.org/metadata/orthos2000.html"/>
</MetadataURL>
<MaxScaleDenominator>75000000</MaxScaleDenominator>
</Layer>
<Layer queryable="0" opaque="1">
<Name>metro</Name>
<Title>2004 color MSP</Title>
<Abstract>An orthoimage is remotely sensed image data in which displacement of features in the image caused by terrain relief and sensor orientation have been mathematically removed. Orthoimagery combines the image characteristics of a photograph with the geometric qualities of a map. For this dataset, the natural color orthoimages were produced at 0.3-meter pixel resolution (approximately 1-foot). The design accuracy is estimated not to exceed 3-meter diagonal RMSE (2.12m RMSE in X or Y). Each orthoimage provides imagery for a 1500-meter by 1500-meter block on the ground. The projected coordinate system is UTM with a NAD83 datum. There is no image overlap between adjacent files. The naming convention for the original tiles is based on the U.S. National Grid (USNG), taking the coordinates of the SW corner of the orthoimage. [Note: this metadata record was reformatted at the Minnesota Land Management Information Center from the record originally posted on the USGS Seamless Server - several of the fields including the Bounding Coordinates, Transfer Format Name, and Lineage fields were changed to reflect LMIC's data delivery option.]</Abstract>
<CRS>EPSG:26915</CRS>
<EX_GeographicBoundingBox>
<westBoundLongitude>-93.52</westBoundLongitude>
<eastBoundLongitude>-92.74</eastBoundLongitude>
<southBoundLatitude>44.74</southBoundLatitude>
<northBoundLatitude>45.26</northBoundLatitude>
</EX_GeographicBoundingBox>
<BoundingBox CRS="EPSG:26915" minx="458964" miny="4954473.6" maxx="520521.6" maxy="5011500" resx="0.3" resy="0.3"/>
<MetadataURL type="FGDC">
<Format>text/html</Format>
<OnlineResource xmlns:xlink="http://www.w3.org/1999/xlink" xlink:href="http://www.mngeo.state.mn.us/chouse/metadata/doq_msp04.html"/>
</MetadataURL>
<MaxScaleDenominator>75000000</MaxScaleDenominator>
</Layer>
<Layer queryable="0" opaque="1">
<Name>msp2006</Name>
<Title>2006 color 7-county (partial)</Title>
<CRS>EPSG:26915</CRS>
<EX_GeographicBoundingBox>
<westBoundLongitude>-93.80</westBoundLongitude>
<eastBoundLongitude>-92.87</eastBoundLongitude>
<southBoundLatitude>44.62</southBoundLatitude>
<northBoundLatitude>45.38</northBoundLatitude>
</EX_GeographicBoundingBox>
<BoundingBox CRS="EPSG:26915" minx="437573.25" miny="4940955.75" maxx="510022.95" maxy="5025035.25" resx="0.3" resy="0.3"/>
<MetadataURL type="FGDC">
<Format>text/html</Format>
<OnlineResource xmlns:xlink="http://www.w3.org/1999/xlink" xlink:href="http://www.mngeo.state.mn.us/chouse/metadata/doq_msp06.html"/>
</MetadataURL>
<MaxScaleDenominator>75000000</MaxScaleDenominator>
</Layer>
<Layer queryable="0" opaque="1">
<Name>stp2006</Name>
<Title>2006 color Ramsey</Title>
<Abstract>The National Elevation Dataset (NED) is the primary elevation data product produced and distributed by the USGS. The NED provides the best available public domain raster elevation data of the conterminous United States, Alaska, Hawaii, and territorial islands in a seamless format. The NED is derived from diverse source data, processed to a common coordinate system and unit of vertical measure. All NED data are distributed in geographic coordinates in units of decimal degrees, and in conformance with the North American Datum of 1983 (NAD 83). All elevation values are provided in units of meters, and are referenced to the North American Vertical Datum of 1988 (NAVD 88) over the conterminous United States. The vertical reference will vary in other areas. NED data are available nationally at resolutions of 1 arc-second (approx. 30 meters) and 1/3 arc-second (approx. 10 meters), and in limited areas at 1/9 arc-second (approx. 3 meters). At present, the bulk of Alaska is only available at a 2 arc-second (approx. 60 meters) resolution, owing to a lack of higher resolution source data, though some areas are available at resolutions of 1 and 1/3 arc-second with plans for significant upgrades of the state over the next five years. The NED is updated on a nominal two month cycle to integrate newly available, improved elevation source data.</Abstract>
<CRS>EPSG:26915</CRS>
<EX_GeographicBoundingBox>
<westBoundLongitude>-93.23</westBoundLongitude>
<eastBoundLongitude>-92.96</eastBoundLongitude>
<southBoundLatitude>44.81</southBoundLatitude>
<northBoundLatitude>45.14</northBoundLatitude>
</EX_GeographicBoundingBox>
<BoundingBox CRS="EPSG:26915" minx="481567.955" miny="4961820.115" maxx="502989.905" maxy="4998410.065" resx="0.15" resy="0.15"/>
<MetadataURL type="FGDC">
<Format>text/html</Format>
<OnlineResource xmlns:xlink="http://www.w3.org/1999/xlink" xlink:href="http://www.mngeo.state.mn.us/chouse/metadata/doq_ramsey06.html"/>
</MetadataURL>
<MaxScaleDenominator>75000000</MaxScaleDenominator>
</Layer>
<Layer queryable="0" opaque="1">
<Name>nga2008</Name>
<Title>2008 color Twin Cities</Title>
<Abstract>This task order consists of natural color digital orthophoto production covering an area containing the Minneapolis - St. Paul downtown metropolitan area in Minnesota. [Note: this metadata record was reformatted at the Minnesota Land Management Information Center from the record provided by USGS - several of the fields including the Bounding Coordinates, Transfer Format Name, and Lineage fields were changed to reflect LMIC's seamless data delivery]</Abstract>
<CRS>EPSG:26915</CRS>
<EX_GeographicBoundingBox>
<westBoundLongitude>-93.31</westBoundLongitude>
<eastBoundLongitude>-93.02</eastBoundLongitude>
<southBoundLatitude>44.84</southBoundLatitude>
<northBoundLatitude>45.01</northBoundLatitude>
</EX_GeographicBoundingBox>
<BoundingBox CRS="EPSG:26915" minx="475500" miny="4964952" maxx="498043.2" maxy="4984500" resx="0.3" resy="0.3"/>
<MetadataURL type="FGDC">
<Format>text/html</Format>
<OnlineResource xmlns:xlink="http://www.w3.org/1999/xlink" xlink:href="http://www.mngeo.state.mn.us/chouse/metadata/doq_msp08.html"/>
</MetadataURL>
<MaxScaleDenominator>75000000</MaxScaleDenominator>
</Layer>
<Layer queryable="0" opaque="1">
<Name>met10cir</Name>
<Title>2010 cir 7-county</Title>
<CRS>EPSG:26915</CRS>
<EX_GeographicBoundingBox>
<westBoundLongitude>-94.08</westBoundLongitude>
<eastBoundLongitude>-92.68</eastBoundLongitude>
<southBoundLatitude>44.43</southBoundLatitude>
<northBoundLatitude>45.44</northBoundLatitude>
</EX_GeographicBoundingBox>
<BoundingBox CRS="EPSG:26915" minx="415485" miny="4920156.9" maxx="525110.1" maxy="5032056.3" resx="0.3" resy="0.3"/>
<MetadataURL type="FGDC">
<Format>text/html</Format>
<OnlineResource xmlns:xlink="http://www.w3.org/1999/xlink" xlink:href="http://www.mngeo.state.mn.us/chouse/metadata/ecmn2010_doqq_1ft.html"/>
</MetadataURL>
<MaxScaleDenominator>75000000</MaxScaleDenominator>
</Layer>
<Layer queryable="0" opaque="1">
<Name>dak10cir</Name>
<Title>2010 cir Dakota</Title>
<CRS>EPSG:26915</CRS>
<EX_GeographicBoundingBox>
<westBoundLongitude>-93.36</westBoundLongitude>
<eastBoundLongitude>-92.72</eastBoundLongitude>
<southBoundLatitude>44.46</southBoundLatitude>
<northBoundLatitude>44.93</northBoundLatitude>
</EX_GeographicBoundingBox>
<BoundingBox CRS="EPSG:26915" minx="471859.2" miny="4922572.8" maxx="522240" maxy="4975449.6" resx="0.15" resy="0.15"/>
<MetadataURL type="FGDC">
<Format>text/html</Format>
<OnlineResource xmlns:xlink="http://www.w3.org/1999/xlink" xlink:href="http://www.mngeo.state.mn.us/chouse"/>
</MetadataURL>
<MaxScaleDenominator>75000000</MaxScaleDenominator>
</Layer>
<Layer queryable="0" opaque="1">
<Name>smet10cir</Name>
<Title>2010 cir north counties</Title>
<CRS>EPSG:26915</CRS>
<EX_GeographicBoundingBox>
<westBoundLongitude>-94.34</westBoundLongitude>
<eastBoundLongitude>-92.62</eastBoundLongitude>
<southBoundLatitude>44.93</southBoundLatitude>
<northBoundLatitude>45.75</northBoundLatitude>
</EX_GeographicBoundingBox>
<BoundingBox CRS="EPSG:26915" minx="396105" miny="4976200.5" maxx="529744" maxy="5066721.5" resx="0.5" resy="0.5"/>
<MetadataURL type="FGDC">
<Format>text/html</Format>
<OnlineResource xmlns:xlink="http://www.w3.org/1999/xlink" xlink:href="http://www.mngeo.state.mn.us/chouse/metadata/ecmn2010_doqq_50cm.html"/>
</MetadataURL>
<MaxScaleDenominator>75000000</MaxScaleDenominator>
</Layer>
<Layer queryable="0" opaque="1">
<Name>scott10cir</Name>
<Title>2010 cir Scott</Title>
<CRS>EPSG:26915</CRS>
<EX_GeographicBoundingBox>
<westBoundLongitude>-93.93</westBoundLongitude>
<eastBoundLongitude>-93.26</eastBoundLongitude>
<southBoundLatitude>44.53</southBoundLatitude>
<northBoundLatitude>44.82</northBoundLatitude>
</EX_GeographicBoundingBox>
<BoundingBox CRS="EPSG:26915" minx="426388.86296" miny="4931131.288773" maxx="479236.71296" maxy="4963166.338773" resx="0.15" resy="0.15"/>
<MetadataURL type="FGDC">
<Format>text/html</Format>
<OnlineResource xmlns:xlink="http://www.w3.org/1999/xlink" xlink:href="http://www.mngeo.state.mn.us/chouse"/>
</MetadataURL>
<MaxScaleDenominator>75000000</MaxScaleDenominator>
</Layer>
<Layer queryable="0" opaque="1">
<Name>met10</Name>
<Title>2010 color 7-county</Title>
<CRS>EPSG:26915</CRS>
<EX_GeographicBoundingBox>
<westBoundLongitude>-94.08</westBoundLongitude>
<eastBoundLongitude>-92.68</eastBoundLongitude>
<southBoundLatitude>44.43</southBoundLatitude>
<northBoundLatitude>45.44</northBoundLatitude>
</EX_GeographicBoundingBox>
<BoundingBox CRS="EPSG:26915" minx="415485" miny="4920156.9" maxx="525110.1" maxy="5032056.3" resx="0.3" resy="0.3"/>
<MetadataURL type="FGDC">
<Format>text/html</Format>
<OnlineResource xmlns:xlink="http://www.w3.org/1999/xlink" xlink:href="http://www.mngeo.state.mn.us/chouse/metadata/ecmn2010_doqq_1ft.html"/>
</MetadataURL>
<MaxScaleDenominator>75000000</MaxScaleDenominator>
</Layer>
<Layer queryable="0" opaque="1">
<Name>dak10</Name>
<Title>2010 color Dakota</Title>
<CRS>EPSG:26915</CRS>
<EX_GeographicBoundingBox>
<westBoundLongitude>-93.36</westBoundLongitude>
<eastBoundLongitude>-92.72</eastBoundLongitude>
<southBoundLatitude>44.46</southBoundLatitude>
<northBoundLatitude>44.93</northBoundLatitude>
</EX_GeographicBoundingBox>
<BoundingBox CRS="EPSG:26915" minx="471859.2" miny="4922572.8" maxx="522240" maxy="4975449.6" resx="0.15" resy="0.15"/>
<MetadataURL type="FGDC">
<Format>text/html</Format>
<OnlineResource xmlns:xlink="http://www.w3.org/1999/xlink" xlink:href="http://www.mngeo.state.mn.us/chouse"/>
</MetadataURL>
<MaxScaleDenominator>75000000</MaxScaleDenominator>
</Layer>
<Layer queryable="0" opaque="1">
<Name>smet10</Name>
<Title>2010 color north counties</Title>
<CRS>EPSG:26915</CRS>
<EX_GeographicBoundingBox>
<westBoundLongitude>-94.34</westBoundLongitude>
<eastBoundLongitude>-92.62</eastBoundLongitude>
<southBoundLatitude>44.93</southBoundLatitude>
<northBoundLatitude>45.75</northBoundLatitude>
</EX_GeographicBoundingBox>
<BoundingBox CRS="EPSG:26915" minx="396105" miny="4976200.5" maxx="529744" maxy="5066721.5" resx="0.5" resy="0.5"/>
<MetadataURL type="FGDC">
<Format>text/html</Format>
<OnlineResource xmlns:xlink="http://www.w3.org/1999/xlink" xlink:href="http://www.mngeo.state.mn.us/chouse/metadata/ecmn2010_doqq_50cm.html"/>
</MetadataURL>
<MaxScaleDenominator>75000000</MaxScaleDenominator>
</Layer>
<Layer queryable="0" opaque="1">
<Name>scott10</Name>
<Title>2010 color Scott</Title>
<CRS>EPSG:26915</CRS>
<EX_GeographicBoundingBox>
<westBoundLongitude>-93.93</westBoundLongitude>
<eastBoundLongitude>-93.26</eastBoundLongitude>
<southBoundLatitude>44.53</southBoundLatitude>
<northBoundLatitude>44.82</northBoundLatitude>
</EX_GeographicBoundingBox>
<BoundingBox CRS="EPSG:26915" minx="426388.86296" miny="4931131.288773" maxx="479236.71296" maxy="4963166.338773" resx="0.15" resy="0.15"/>
<MetadataURL type="FGDC">
<Format>text/html</Format>
<OnlineResource xmlns:xlink="http://www.w3.org/1999/xlink" xlink:href="http://www.mngeo.state.mn.us/chouse"/>
</MetadataURL>
<MaxScaleDenominator>75000000</MaxScaleDenominator>
</Layer>
<Layer queryable="0" opaque="1">
<Name>rice11cir</Name>
<Title>2011 cir Rice</Title>
<CRS>EPSG:26915</CRS>
<EX_GeographicBoundingBox>
<westBoundLongitude>-93.53</westBoundLongitude>
<eastBoundLongitude>-93.04</eastBoundLongitude>
<southBoundLatitude>44.19</southBoundLatitude>
<northBoundLatitude>44.55</northBoundLatitude>
</EX_GeographicBoundingBox>
<BoundingBox CRS="EPSG:26915" minx="457927.010844" miny="4893665.791428" maxx="496920.410844" maxy="4932434.941428" resx="0.3" resy="0.3"/>
<MetadataURL type="FGDC">
<Format>text/html</Format>
<OnlineResource xmlns:xlink="http://www.w3.org/1999/xlink" xlink:href="http://www.mngeo.state.mn.us/chouse"/>
</MetadataURL>
<MaxScaleDenominator>75000000</MaxScaleDenominator>
</Layer>
<Layer queryable="0" opaque="1">
<Name>rice11</Name>
<Title>2011 color Rice</Title>
<CRS>EPSG:26915</CRS>
<EX_GeographicBoundingBox>
<westBoundLongitude>-93.53</westBoundLongitude>
<eastBoundLongitude>-93.04</eastBoundLongitude>
<southBoundLatitude>44.19</southBoundLatitude>
<northBoundLatitude>44.55</northBoundLatitude>
</EX_GeographicBoundingBox>
<BoundingBox CRS="EPSG:26915" minx="457927.010844" miny="4893665.791428" maxx="496920.410844" maxy="4932434.941428" resx="0.3" resy="0.3"/>
<MetadataURL type="FGDC">
<Format>text/html</Format>
<OnlineResource xmlns:xlink="http://www.w3.org/1999/xlink" xlink:href="http://www.mngeo.state.mn.us/chouse"/>
</MetadataURL>
<MaxScaleDenominator>75000000</MaxScaleDenominator>
</Layer>
<Layer queryable="0" opaque="1">
<Name>nga2012</Name>
<Title>2012 color Twin Cities</Title>
<CRS>EPSG:26915</CRS>
<EX_GeographicBoundingBox>
<westBoundLongitude>-93.77</westBoundLongitude>
<eastBoundLongitude>-92.85</eastBoundLongitude>
<southBoundLatitude>44.62</southBoundLatitude>
<northBoundLatitude>45.38</northBoundLatitude>
</EX_GeographicBoundingBox>
<BoundingBox CRS="EPSG:26915" minx="439500" miny="4940990.4" maxx="511502.4" maxy="5025050.4" resx="0.3" resy="0.3"/>
<MetadataURL type="FGDC">
<Format>text/html</Format>
<OnlineResource xmlns:xlink="http://www.w3.org/1999/xlink" xlink:href="http://www.mngeo.state.mn.us/chouse/metadata/doq_msp12.html"/>
</MetadataURL>
<MaxScaleDenominator>75000000</MaxScaleDenominator>
</Layer>
<Layer queryable="0" opaque="1">
<Name>carv13cir</Name>
<Title>2013 cir Carver</Title>
<CRS>EPSG:26915</CRS>
<EX_GeographicBoundingBox>
<westBoundLongitude>-94.02</westBoundLongitude>
<eastBoundLongitude>-93.51</eastBoundLongitude>
<southBoundLatitude>44.63</southBoundLatitude>
<northBoundLatitude>44.98</northBoundLatitude>
</EX_GeographicBoundingBox>
<BoundingBox CRS="EPSG:26915" minx="419934.075" miny="4942096.725" maxx="459700.875" maxy="4981116.525" resx="0.15" resy="0.15"/>
<MaxScaleDenominator>75000000</MaxScaleDenominator>
</Layer>
<Layer queryable="0" opaque="1">
<Name>dak13cir</Name>
<Title>2013 cir Dakota</Title>
<CRS>EPSG:26915</CRS>
<EX_GeographicBoundingBox>
<westBoundLongitude>-93.34</westBoundLongitude>
<eastBoundLongitude>-92.73</eastBoundLongitude>
<southBoundLatitude>44.47</southBoundLatitude>
<northBoundLatitude>44.93</northBoundLatitude>
</EX_GeographicBoundingBox>
<BoundingBox CRS="EPSG:26915" minx="473034.675" miny="4924043.925" maxx="521482.275" maxy="4975496.925" resx="0.15" resy="0.15"/>
<MaxScaleDenominator>75000000</MaxScaleDenominator>
</Layer>
<Layer queryable="0" opaque="1">
<Name>scott13cir</Name>
<Title>2013 cir Scott</Title>
<CRS>EPSG:26915</CRS>
<EX_GeographicBoundingBox>
<westBoundLongitude>-93.94</westBoundLongitude>
<eastBoundLongitude>-93.26</eastBoundLongitude>
<southBoundLatitude>44.51</southBoundLatitude>
<northBoundLatitude>44.82</northBoundLatitude>
</EX_GeographicBoundingBox>
<BoundingBox CRS="EPSG:26915" minx="425979.075" miny="4929044.325" maxx="479676.075" maxy="4963121.925" resx="0.15" resy="0.15"/>
<MaxScaleDenominator>75000000</MaxScaleDenominator>
</Layer>
<Layer queryable="0" opaque="1">
<Name>carv13</Name>
<Title>2013 color Carver</Title>
<CRS>EPSG:26915</CRS>
<EX_GeographicBoundingBox>
<westBoundLongitude>-94.02</westBoundLongitude>
<eastBoundLongitude>-93.51</eastBoundLongitude>
<southBoundLatitude>44.63</southBoundLatitude>
<northBoundLatitude>44.98</northBoundLatitude>
</EX_GeographicBoundingBox>
<BoundingBox CRS="EPSG:26915" minx="419934.075" miny="4942096.725" maxx="459700.875" maxy="4981116.525" resx="0.15" resy="0.15"/>
<MaxScaleDenominator>75000000</MaxScaleDenominator>
</Layer>
<Layer queryable="0" opaque="1">
<Name>dak13</Name>
<Title>2013 color Dakota</Title>
<CRS>EPSG:26915</CRS>
<EX_GeographicBoundingBox>
<westBoundLongitude>-93.34</westBoundLongitude>
<eastBoundLongitude>-92.73</eastBoundLongitude>
<southBoundLatitude>44.47</southBoundLatitude>
<northBoundLatitude>44.93</northBoundLatitude>
</EX_GeographicBoundingBox>
<BoundingBox CRS="EPSG:26915" minx="473034.675" miny="4924043.925" maxx="521482.275" maxy="4975496.925" resx="0.15" resy="0.15"/>
<MaxScaleDenominator>75000000</MaxScaleDenominator>
</Layer>
<Layer queryable="0" opaque="1">
<Name>scott13</Name>
<Title>2013 color Scott</Title>
<CRS>EPSG:26915</CRS>
<EX_GeographicBoundingBox>
<westBoundLongitude>-93.94</westBoundLongitude>
<eastBoundLongitude>-93.26</eastBoundLongitude>
<southBoundLatitude>44.51</southBoundLatitude>
<northBoundLatitude>44.82</northBoundLatitude>
</EX_GeographicBoundingBox>
<BoundingBox CRS="EPSG:26915" minx="425979.075" miny="4929044.325" maxx="479676.075" maxy="4963121.925" resx="0.15" resy="0.15"/>
<MaxScaleDenominator>75000000</MaxScaleDenominator>
</Layer>
<Layer queryable="0" opaque="1">
<Name>wash13</Name>
<Title>2013 Washington</Title>
<CRS>EPSG:26915</CRS>
<EX_GeographicBoundingBox>
<westBoundLongitude>-93.05</westBoundLongitude>
<eastBoundLongitude>-92.72</eastBoundLongitude>
<southBoundLatitude>44.73</southBoundLatitude>
<northBoundLatitude>45.30</northBoundLatitude>
</EX_GeographicBoundingBox>
<BoundingBox CRS="EPSG:26915" minx="496310.697581" miny="4952949.694795" maxx="522203.547581" maxy="5016107.794795" resx="0.15" resy="0.15"/>
<MaxScaleDenominator>75000000</MaxScaleDenominator>
</Layer>
<Layer queryable="0" opaque="1">
<Name>met16cir</Name>
<Title>2016 cir 7-county</Title>
<CRS>EPSG:26915</CRS>
<EX_GeographicBoundingBox>
<westBoundLongitude>-94.08</westBoundLongitude>
<eastBoundLongitude>-92.68</eastBoundLongitude>
<southBoundLatitude>44.43</southBoundLatitude>
<northBoundLatitude>45.44</northBoundLatitude>
</EX_GeographicBoundingBox>
<BoundingBox CRS="EPSG:26915" minx="415485.3" miny="4920156.9" maxx="525109.8" maxy="5032056.3" resx="0.3" resy="0.3"/>
<MetadataURL type="FGDC">
<Format>text/html</Format>
<OnlineResource xmlns:xlink="http://www.w3.org/1999/xlink" xlink:href="ftp://ftp.gisdata.mn.gov/pub/gdrs/data/pub/us_mn_state_metc/base_metro_orthos_2016/metadata/metadata.html"/>
</MetadataURL>
<MaxScaleDenominator>75000000</MaxScaleDenominator>
</Layer>
<Layer queryable="0" opaque="1">
<Name>met16</Name>
<Title>2016 color 7-county</Title>
<CRS>EPSG:26915</CRS>
<EX_GeographicBoundingBox>
<westBoundLongitude>-94.08</westBoundLongitude>
<eastBoundLongitude>-92.68</eastBoundLongitude>
<southBoundLatitude>44.43</southBoundLatitude>
<northBoundLatitude>45.44</northBoundLatitude>
</EX_GeographicBoundingBox>
<BoundingBox CRS="EPSG:26915" minx="415471.8" miny="4920133.5" maxx="525149.1" maxy="5032002.6" resx="0.3" resy="0.3"/>
<MetadataURL type="FGDC">
<Format>text/html</Format>
<OnlineResource xmlns:xlink="http://www.w3.org/1999/xlink" xlink:href="ftp://ftp.gisdata.mn.gov/pub/gdrs/data/pub/us_mn_state_metc/base_metro_orthos_2016/metadata/metadata.html"/>
</MetadataURL>
<MaxScaleDenominator>75000000</MaxScaleDenominator>
</Layer>
<Layer queryable="0" opaque="1">
<Name>hen18</Name>
<Title>2018 color Hennepin 3 in</Title>
<CRS>EPSG:26915</CRS>
<EX_GeographicBoundingBox>
<westBoundLongitude>-93.78</westBoundLongitude>
<eastBoundLongitude>-93.17</eastBoundLongitude>
<southBoundLatitude>44.78</southBoundLatitude>
<northBoundLatitude>45.25</northBoundLatitude>
</EX_GeographicBoundingBox>
<BoundingBox CRS="EPSG:26915" minx="438547.526601" miny="4958308.62387" maxx="486855.585017" maxy="5011231.887709" resx="0.0762" resy="0.0762"/>
<MaxScaleDenominator>75000000</MaxScaleDenominator>
</Layer>
<Layer queryable="0" opaque="1">
<Name>dak19cir</Name>
<Title>2019 cir Dakota 6 in</Title>
<CRS>EPSG:26915</CRS>
<EX_GeographicBoundingBox>
<westBoundLongitude>-93.34</westBoundLongitude>
<eastBoundLongitude>-92.73</eastBoundLongitude>
<southBoundLatitude>44.47</southBoundLatitude>
<northBoundLatitude>44.94</northBoundLatitude>
</EX_GeographicBoundingBox>
<BoundingBox CRS="EPSG:26915" minx="473025.103844" miny="4924027.722208" maxx="521494.704644" maxy="4975813.547008" resx="0.1524" resy="0.1524"/>
<MetadataURL type="FGDC">
<Format>text/html</Format>
<OnlineResource xmlns:xlink="http://www.w3.org/1999/xlink" xlink:href="https://resources.gisdata.mn.gov/pub/gdrs/data/pub/us_mn_co_dakota/base_aerialphotography_2019_sprg/metadata/metadata.html"/>
</MetadataURL>
<MaxScaleDenominator>75000000</MaxScaleDenominator>
</Layer>
<Layer queryable="0" opaque="1">
<Name>dak19</Name>
<Title>2019 color Dakota 6 in</Title>
<CRS>EPSG:26915</CRS>
<EX_GeographicBoundingBox>
<westBoundLongitude>-93.34</westBoundLongitude>
<eastBoundLongitude>-92.73</eastBoundLongitude>
<southBoundLatitude>44.47</southBoundLatitude>
<northBoundLatitude>44.94</northBoundLatitude>
</EX_GeographicBoundingBox>
<BoundingBox CRS="EPSG:26915" minx="473025.103844" miny="4924027.722208" maxx="521494.704644" maxy="4975813.547008" resx="0.1524" resy="0.1524"/>
<MetadataURL type="FGDC">
<Format>text/html</Format>
<OnlineResource xmlns:xlink="http://www.w3.org/1999/xlink" xlink:href="https://resources.gisdata.mn.gov/pub/gdrs/data/pub/us_mn_co_dakota/base_aerialphotography_2019_sprg/metadata/metadata.html"/>
</MetadataURL>
<MaxScaleDenominator>75000000</MaxScaleDenominator>
</Layer>
<Layer queryable="0" opaque="1">
<Name>met20cir</Name>
<Title>2020 cir 7-county</Title>
<CRS>EPSG:26915</CRS>
<EX_GeographicBoundingBox>
<westBoundLongitude>-94.08</westBoundLongitude>
<eastBoundLongitude>-92.68</eastBoundLongitude>
<southBoundLatitude>44.43</southBoundLatitude>
<northBoundLatitude>45.44</northBoundLatitude>
</EX_GeographicBoundingBox>
<BoundingBox CRS="EPSG:26915" minx="415470" miny="4920088.5" maxx="525112.5" maxy="5032007.1" resx="0.3" resy="0.3"/>
<MaxScaleDenominator>75000000</MaxScaleDenominator>
</Layer>
<Layer queryable="0" opaque="1">
<Name>rams20cir</Name>
<Title>2020 cir Ramsey 6 in</Title>
<CRS>EPSG:26915</CRS>
<EX_GeographicBoundingBox>
<westBoundLongitude>-93.23</westBoundLongitude>
<eastBoundLongitude>-92.96</eastBoundLongitude>
<southBoundLatitude>44.88</southBoundLatitude>
<northBoundLatitude>45.14</northBoundLatitude>
</EX_GeographicBoundingBox>
<BoundingBox CRS="EPSG:26915" minx="481566.481547" miny="4969335.252266" maxx="502994.378747" maxy="4998409.971866" resx="0.1524" resy="0.1524"/>
<MaxScaleDenominator>75000000</MaxScaleDenominator>
</Layer>
<Layer queryable="0" opaque="1">
<Name>met20</Name>
<Title>2020 color 7-county</Title>
<CRS>EPSG:26915</CRS>
<EX_GeographicBoundingBox>
<westBoundLongitude>-94.08</westBoundLongitude>
<eastBoundLongitude>-92.68</eastBoundLongitude>
<southBoundLatitude>44.43</southBoundLatitude>
<northBoundLatitude>45.44</northBoundLatitude>
</EX_GeographicBoundingBox>
<BoundingBox CRS="EPSG:26915" minx="415470" miny="4920088.5" maxx="525112.5" maxy="5032007.1" resx="0.3" resy="0.3"/>
<MaxScaleDenominator>75000000</MaxScaleDenominator>
</Layer>
<Layer queryable="0" opaque="1">
<Name>rams20</Name>
<Title>2020 color Ramsey 6 in</Title>
<CRS>EPSG:26915</CRS>
<EX_GeographicBoundingBox>
<westBoundLongitude>-93.23</westBoundLongitude>
<eastBoundLongitude>-92.96</eastBoundLongitude>
<southBoundLatitude>44.88</southBoundLatitude>
<northBoundLatitude>45.14</northBoundLatitude>
</EX_GeographicBoundingBox>
<BoundingBox CRS="EPSG:26915" minx="481566.481547" miny="4969335.252266" maxx="502994.378747" maxy="4998409.971866" resx="0.1524" resy="0.1524"/>
<MaxScaleDenominator>75000000</MaxScaleDenominator>
</Layer>
<Layer queryable="0" opaque="1">
<Name>dak21</Name>
<Title>2021 color Dakota 6 in</Title>
<CRS>EPSG:26915</CRS>
<EX_GeographicBoundingBox>
<westBoundLongitude>-93.34</westBoundLongitude>
<eastBoundLongitude>-92.72</eastBoundLongitude>
<southBoundLatitude>44.46</southBoundLatitude>
<northBoundLatitude>44.93</northBoundLatitude>
</EX_GeographicBoundingBox>
<BoundingBox CRS="EPSG:26915" minx="473286.043685" miny="4923146.581078" maxx="522304.284485" maxy="4975136.164678" resx="0.1524" resy="0.1524"/>
<MaxScaleDenominator>75000000</MaxScaleDenominator>
</Layer>
<Layer queryable="0" opaque="1">
<Name>hen21</Name>
<Title>2021 color Hennepin 6 in</Title>
<CRS>EPSG:26915</CRS>
<EX_GeographicBoundingBox>
<westBoundLongitude>-93.77</westBoundLongitude>
<eastBoundLongitude>-93.18</eastBoundLongitude>
<southBoundLatitude>44.78</southBoundLatitude>
<northBoundLatitude>45.25</northBoundLatitude>
</EX_GeographicBoundingBox>
<BoundingBox CRS="EPSG:26915" minx="439317.200936" miny="4959153.595689" maxx="486036.487736" maxy="5010504.623289" resx="0.1524" resy="0.1524"/>
<MaxScaleDenominator>75000000</MaxScaleDenominator>
</Layer>
<Layer queryable="0" opaque="1">
<Name>hen22</Name>
<Title>2022 color Hennepin 6 in</Title>
<CRS>EPSG:26915</CRS>
<EX_GeographicBoundingBox>
<westBoundLongitude>-93.77</westBoundLongitude>
<eastBoundLongitude>-93.18</eastBoundLongitude>
<southBoundLatitude>44.78</southBoundLatitude>
<northBoundLatitude>45.25</northBoundLatitude>
</EX_GeographicBoundingBox>
<BoundingBox CRS="EPSG:26915" minx="439354.1124" miny="4959132.8808" maxx="486056.7876" maxy="5010478.2696" resx="0.1524" resy="0.1524"/>
<MaxScaleDenominator>75000000</MaxScaleDenominator>
</Layer>
<Layer queryable="0" opaque="1">
<Name>dak23</Name>
<Title>2023 color Dakota 6 in</Title>
<CRS>EPSG:26915</CRS>
<EX_GeographicBoundingBox>
<westBoundLongitude>-93.35</westBoundLongitude>
<eastBoundLongitude>-92.71</eastBoundLongitude>
<southBoundLatitude>44.46</southBoundLatitude>
<northBoundLatitude>44.93</northBoundLatitude>
</EX_GeographicBoundingBox>
<BoundingBox CRS="EPSG:26915" minx="472555.730486" miny="4922902.8288" maxx="522581.949793" maxy="4975753.9296" resx="0.1524" resy="0.1524"/>
<MaxScaleDenominator>75000000</MaxScaleDenominator>
</Layer>
</Layer>
<Layer>
<Title>Statewide</Title>
<Layer queryable="0" opaque="1">
<Name>hillshd</Name>
<Title>Hillshade (LIDAR)</Title>
<Abstract>Hill shades derived from 1 m. lidar</Abstract>
<CRS>EPSG:26915</CRS>
<EX_GeographicBoundingBox>
<westBoundLongitude>-97.54</westBoundLongitude>
<eastBoundLongitude>-89.33</eastBoundLongitude>
<southBoundLatitude>43.40</southBoundLatitude>
<northBoundLatitude>49.40</northBoundLatitude>
</EX_GeographicBoundingBox>
<BoundingBox CRS="EPSG:26915" minx="170240" miny="4812800" maxx="766464" maxy="5478912" resx="1" resy="1"/>
<MetadataURL type="FGDC">
<Format>text/html</Format>
<OnlineResource xmlns:xlink="http://www.w3.org/1999/xlink" xlink:href="http://www.mngeo.state.mn.us/chouse/metadata/lidar_hillshade_mn.html"/>
</MetadataURL>
<MaxScaleDenominator>75000000</MaxScaleDenominator>
</Layer>
<Layer queryable="0" opaque="1">
<Name>doq</Name>
<Title>1991 bw USGS</Title>
<Abstract>A digital orthophoto is a raster image of remotely sensed data in which displacement in the image due to sensor orientation and terrain relief have been removed. Orthophotos combine the image characteristics of a photograph with the geometric qualities of a map. The primary digital orthophotoquad (DOQ) is a 1-meter ground resolution, quarter-quadrangle (3.75-minutes of latitude by 3.75-minutes of longitude) image cast on the Universal Transverse Mercator Projection (UTM) on the North American Datum of 1983 (NAD83). The geographic extent of the DOQ is equivalent to a quarter-quad plus overedge. The overedge ranges a minimum of 50 meters to a maximum of 300 meters beyond the extremes of the primary and secondary corner points. The overedge is included to facilitate tonal matching for mosaicking and for the placement of the NAD83 and secondary datum corner ticks. The normal orientation of data is by lines (rows) and samples (columns). Each line contains a series of pixels ordered from west to east with the order of the lines from north to south. The standard, archived digital orthophoto is formatted as four ASCII header records, followed by a series of 8-bit binary image data records. The radiometric image brightness values are stored as 256 gray levels ranging from 0 to 255. The metadata provided in the digital orthophoto contain a wide range of descriptive information including format source information, production instrumentation and dates, and data to assist with displaying and georeferencing the image. The standard distribution format of DOQs will be JPEG compressed images on CD by counties or special regions. The reconstituted image from the CD will exhibit some radiometric differences when compared to its uncompressed original but will retain the geometry of the uncompressed DOQ.</Abstract>
<CRS>EPSG:26915</CRS>
<EX_GeographicBoundingBox>
<westBoundLongitude>-97.54</westBoundLongitude>
<eastBoundLongitude>-89.33</eastBoundLongitude>
<southBoundLatitude>43.42</southBoundLatitude>
<northBoundLatitude>49.40</northBoundLatitude>
</EX_GeographicBoundingBox>
<BoundingBox CRS="EPSG:26915" minx="170240" miny="4815872" maxx="766464" maxy="5478912" resx="1" resy="1"/>
<MetadataURL type="FGDC">
<Format>text/html</Format>
<OnlineResource xmlns:xlink="http://www.w3.org/1999/xlink" xlink:href="http://www.mngeo.state.mn.us/chouse/metadata/doq.html"/>
</MetadataURL>
<MaxScaleDenominator>75000000</MaxScaleDenominator>
</Layer>
<Layer queryable="0" opaque="1">
<Name>landsat</Name>
<Title>2002-04 Landsat</Title>
<Abstract>This data set contains 3-band natural color imagery from the National Agricultural Imagery Program (NAIP). NAIP acquires digital ortho imagery during the agricultural growing seasons in the continental U.S. A primary goal of the NAIP program is to enable availability of ortho imagery within one year of acquisition. The source files are 1 meter ground sample distance (GSD) ortho imagery rectified to a horizontal accuracy of within +/- 5 meters of reference digital ortho quarter quads (DOQQ's) from the National Digital Ortho Program (NDOP) or from NAIP. The tiling format of NAIP imagery is based on a 3.75' x 3.75' quarter quadrangle with a 300 meter buffer on all four sides. NAIP imagery is formatted to the UTM coordinate system using NAD83. NAIP imagery may contain as much as 10% cloud cover per tile. This file was generated by compressing NAIP imagery that cover the county extent. MrSID compression was used. Target values for the compression ratio are (15:1). (Note: The Minnesota Geospatial Information Office (MnGeo) has created this metadata record to describe the entire NAIP2009 dataset, using information from Farm Service Agency metadata. Each county file is accompanied by the original FSA metadata for that county.)</Abstract>
<CRS>EPSG:26915</CRS>
<EX_GeographicBoundingBox>
<westBoundLongitude>-102.05</westBoundLongitude>
<eastBoundLongitude>-85.90</eastBoundLongitude>
<southBoundLatitude>40.46</southBoundLatitude>
<northBoundLatitude>51.37</northBoundLatitude>
</EX_GeographicBoundingBox>
<BoundingBox CRS="EPSG:26915" minx="-131108.45" miny="4505093.25" maxx="994071.55" maxy="5715117.75" resx="28.5" resy="28.5"/>
<MetadataURL type="FGDC">
<Format>text/html</Format>
<OnlineResource xmlns:xlink="http://www.w3.org/1999/xlink" xlink:href="http://www.mngeo.state.mn.us/chouse/metadata/naip09.html"/>
</MetadataURL>
<MaxScaleDenominator>75000000</MaxScaleDenominator>
</Layer>
<Layer queryable="0" opaque="1">
<Name>fsa</Name>
<Title>2003 color FSA</Title>
<Abstract>This data set contains photographic information obtained for the National Agricultural Imagery Program (NAIP) and is comprised of scanned photographs that were acquired on color positive film. Acquisition was leaf-on with mature crops prior to harvest. Images have been orthorectified. NAIP imagery is quarter-quadrangle centered to provide consistent and repeatable coverage. The quarter-quad photos have been mosaicked into MrSID format county files. (Note that the Farm Services Agency provided one metadata record per MrSID county file; the Land Management Information Center created this metadata record to describe the whole data set. For information that FSA did not provide, the metadata for Minnesota's NAIP 2002 imagery can serve as a general guide to the NAIP program procedure -- some of the specific processing steps or accuracy assessments may differ from the 2003 program: http://www.lmic.state.mn.us/chouse/metadata/naip02.html )</Abstract>
<CRS>EPSG:26915</CRS>
<EX_GeographicBoundingBox>
<westBoundLongitude>-97.30</westBoundLongitude>
<eastBoundLongitude>-89.46</eastBoundLongitude>
<southBoundLatitude>43.37</southBoundLatitude>
<northBoundLatitude>49.35</northBoundLatitude>
</EX_GeographicBoundingBox>
<BoundingBox CRS="EPSG:26915" minx="187392" miny="4808960" maxx="756992" maxy="5472000" resx="1" resy="1"/>
<MetadataURL type="FGDC">
<Format>text/html</Format>
<OnlineResource xmlns:xlink="http://www.w3.org/1999/xlink" xlink:href="http://www.mngeo.state.mn.us/chouse/metadata/naip03.html"/>
</MetadataURL>
<MaxScaleDenominator>75000000</MaxScaleDenominator>
</Layer>
<Layer queryable="0" opaque="1">
<Name>usgs2006</Name>
<Title>2006 color 40 county</Title>
<Abstract>Natural-color one-meter resolution digital orthophotography was acquired over 40 Minnesota counties in Summer and Fall 2006. Some areas are leaf-on; other areas are leaf-off. The U.S. Geological Survey procured the imagery from the vendor in order to make it publicly available. The imagery is currently accessible via a WMS service from the Minnesota Land Management Information Center (LMIC). LMIC created this metadata record based on information provided by MDA.</Abstract>
<CRS>EPSG:26915</CRS>
<EX_GeographicBoundingBox>
<westBoundLongitude>-97.27</westBoundLongitude>
<eastBoundLongitude>-91.00</eastBoundLongitude>
<southBoundLatitude>43.37</southBoundLatitude>
<northBoundLatitude>49.04</northBoundLatitude>
</EX_GeographicBoundingBox>
<BoundingBox CRS="EPSG:26915" minx="187904" miny="4808960" maxx="646144" maxy="5433600" resx="1" resy="1"/>
<MetadataURL type="FGDC">
<Format>text/html</Format>
<OnlineResource xmlns:xlink="http://www.w3.org/1999/xlink" xlink:href="http://www.mngeo.state.mn.us/chouse/metadata/doq06mda.html"/>
</MetadataURL>
<MaxScaleDenominator>75000000</MaxScaleDenominator>
</Layer>
<Layer queryable="0" opaque="1">
<Name>cir2008</Name>
<Title>2008 cir FSA</Title>
<Abstract>This data set contains 4-band (natural color plus infrared) imagery from the National Agricultural Imagery Program (NAIP). NAIP acquires digital ortho imagery during the agricultural growing seasons in the continental U.S. A primary goal of the NAIP program is to enable availability of ortho imagery within one year of acquisition. The source files are 1 meter ground sample distance (GSD) ortho imagery rectified to a horizontal accuracy of within +/- 5 meters of reference digital ortho quarter quads (DOQQ's) from the National Digital Ortho Program (NDOP) or from NAIP. The tiling format of NAIP imagery is based on a 3.75' x 3.75' quarter quadrangle with a 300 meter buffer on all four sides. NAIP quarter quads are formatted to the UTM coordinate system using NAD83. NAIP imagery may contain as much as 10% cloud cover per tile. This file was generated by compressing NAIP quarter quadrangle tiles that cover a county. JPEG2000 compression was used. Target values for the compression ratio are (15:1). (Note: The Land Management Information Center has created this metadata record to describe the entire NAIP2008 dataset, using information from Farm Service Agency metadata. Each county file is accompanied by the original FSA metadata for that county.)</Abstract>
<CRS>EPSG:26915</CRS>
<EX_GeographicBoundingBox>
<westBoundLongitude>-97.39</westBoundLongitude>
<eastBoundLongitude>-89.33</eastBoundLongitude>
<southBoundLatitude>43.37</southBoundLatitude>
<northBoundLatitude>49.40</northBoundLatitude>
</EX_GeographicBoundingBox>
<BoundingBox CRS="EPSG:26915" minx="181760" miny="4808960" maxx="766208" maxy="5478912" resx="1" resy="1"/>
<MetadataURL type="FGDC">
<Format>text/html</Format>
<OnlineResource xmlns:xlink="http://www.w3.org/1999/xlink" xlink:href="http://www.mngeo.state.mn.us/chouse/metadata/naip08.html"/>
</MetadataURL>
<MaxScaleDenominator>75000000</MaxScaleDenominator>
</Layer>
<Layer queryable="0" opaque="1">
<Name>fsa2008</Name>
<Title>2008 color FSA</Title>
<Abstract>This data set contains 4-band (natural color plus infrared) imagery from the National Agricultural Imagery Program (NAIP). NAIP acquires digital ortho imagery during the agricultural growing seasons in the continental U.S. A primary goal of the NAIP program is to enable availability of ortho imagery within one year of acquisition. The source files are 1 meter ground sample distance (GSD) ortho imagery rectified to a horizontal accuracy of within +/- 5 meters of reference digital ortho quarter quads (DOQQ's) from the National Digital Ortho Program (NDOP) or from NAIP. The tiling format of NAIP imagery is based on a 3.75' x 3.75' quarter quadrangle with a 300 meter buffer on all four sides. NAIP quarter quads are formatted to the UTM coordinate system using NAD83. NAIP imagery may contain as much as 10% cloud cover per tile. This file was generated by compressing NAIP quarter quadrangle tiles that cover a county. JPEG2000 compression was used. Target values for the compression ratio are (15:1). (Note: The Land Management Information Center has created this metadata record to describe the entire NAIP2008 dataset, using information from Farm Service Agency metadata. Each county file is accompanied by the original FSA metadata for that county.)</Abstract>
<CRS>EPSG:26915</CRS>
<EX_GeographicBoundingBox>
<westBoundLongitude>-97.39</westBoundLongitude>
<eastBoundLongitude>-89.33</eastBoundLongitude>
<southBoundLatitude>42.39</southBoundLatitude>
<northBoundLatitude>49.40</northBoundLatitude>
</EX_GeographicBoundingBox>
<BoundingBox CRS="EPSG:26915" minx="181760" miny="4700000" maxx="766208" maxy="5478912" resx="1" resy="1"/>
<MetadataURL type="FGDC">
<Format>text/html</Format>
<OnlineResource xmlns:xlink="http://www.w3.org/1999/xlink" xlink:href="http://www.mngeo.state.mn.us/chouse/metadata/naip08.html"/>
</MetadataURL>
<MaxScaleDenominator>75000000</MaxScaleDenominator>
</Layer>
<Layer queryable="0" opaque="1">
<Name>fsa2009</Name>
<Title>2009 color FSA</Title>
<Abstract>This data set contains 3-band natural color imagery from the National Agricultural Imagery Program (NAIP). NAIP acquires digital ortho imagery during the agricultural growing seasons in the continental U.S. A primary goal of the NAIP program is to enable availability of ortho imagery within one year of acquisition. The source files are 1 meter ground sample distance (GSD) ortho imagery rectified to a horizontal accuracy of within +/- 5 meters of reference digital ortho quarter quads (DOQQ's) from the National Digital Ortho Program (NDOP) or from NAIP. The tiling format of NAIP imagery is based on a 3.75' x 3.75' quarter quadrangle with a 300 meter buffer on all four sides. NAIP imagery is formatted to the UTM coordinate system using NAD83. NAIP imagery may contain as much as 10% cloud cover per tile. This file was generated by compressing NAIP imagery that cover the county extent. MrSID compression was used. Target values for the compression ratio are (15:1). (Note: The Minnesota Geospatial Information Office (MnGeo) has created this metadata record to describe the entire NAIP2009 dataset, using information from Farm Service Agency metadata. Each county file is accompanied by the original FSA metadata for that county.)</Abstract>
<CRS>EPSG:26915</CRS>
<EX_GeographicBoundingBox>
<westBoundLongitude>-97.39</westBoundLongitude>
<eastBoundLongitude>-89.33</eastBoundLongitude>
<southBoundLatitude>43.37</southBoundLatitude>
<northBoundLatitude>49.41</northBoundLatitude>
</EX_GeographicBoundingBox>
<BoundingBox CRS="EPSG:26915" minx="181760" miny="4808960" maxx="766464" maxy="5479168" resx="1" resy="1"/>
<MetadataURL type="FGDC">
<Format>text/html</Format>
<OnlineResource xmlns:xlink="http://www.w3.org/1999/xlink" xlink:href="http://www.mngeo.state.mn.us/chouse/metadata/naip09.html"/>
</MetadataURL>
<MaxScaleDenominator>75000000</MaxScaleDenominator>
</Layer>
<Layer queryable="0" opaque="1">
<Name>fsa2010</Name>
<Title>2010 color FSA</Title>
<Abstract>This data set contains 3-band natural color imagery from the National Agricultural Imagery Program (NAIP). NAIP acquires digital ortho imagery during the agricultural growing seasons in the continental U.S. A primary goal of the NAIP program is to enable availability of ortho imagery within one year of acquisition. The source files are 1 meter ground sample distance (GSD) ortho imagery rectified to a horizontal accuracy of within +/- 5 meters of reference digital ortho quarter quads (DOQQ's) from the National Digital Ortho Program (NDOP) or from NAIP. The tiling format of NAIP imagery is based on a 3.75' x 3.75' quarter quadrangle with a 300 meter buffer on all four sides. NAIP imagery is formatted to the UTM coordinate system using NAD83. NAIP imagery may contain as much as 10% cloud cover per tile. This file was generated by compressing NAIP imagery that cover the county extent. MrSID compression was used. Target values for the compression ratio are (15:1). (Note: The Minnesota Geospatial Information Office (MnGeo) has created this metadata record to describe the entire NAIP2010 dataset, using information from Farm Service Agency metadata. Each county file is accompanied by the original FSA metadata for that county.)</Abstract>
<CRS>EPSG:26915</CRS>
<EX_GeographicBoundingBox>
<westBoundLongitude>-97.39</westBoundLongitude>
<eastBoundLongitude>-89.33</eastBoundLongitude>
<southBoundLatitude>43.37</southBoundLatitude>
<northBoundLatitude>49.41</northBoundLatitude>
</EX_GeographicBoundingBox>
<BoundingBox CRS="EPSG:26915" minx="181760" miny="4808960" maxx="766464" maxy="5479168" resx="1" resy="1"/>
<MetadataURL type="FGDC">
<Format>text/html</Format>
<OnlineResource xmlns:xlink="http://www.w3.org/1999/xlink" xlink:href="http://www.mngeo.state.mn.us/chouse/metadata/naip10.html"/>
</MetadataURL>
<MaxScaleDenominator>75000000</MaxScaleDenominator>
</Layer>
<Layer queryable="0" opaque="1">
<Name>fsa2013cir</Name>
<Title>2013 cir FSA</Title>
<CRS>EPSG:26915</CRS>
<EX_GeographicBoundingBox>
<westBoundLongitude>-97.31</westBoundLongitude>
<eastBoundLongitude>-89.33</eastBoundLongitude>
<southBoundLatitude>43.37</southBoundLatitude>
<northBoundLatitude>49.40</northBoundLatitude>
</EX_GeographicBoundingBox>
<BoundingBox CRS="EPSG:26915" minx="187392" miny="4808960" maxx="766464" maxy="5478912" resx="1" resy="1"/>
<MaxScaleDenominator>75000000</MaxScaleDenominator>
</Layer>
<Layer queryable="0" opaque="1">
<Name>fsa2013</Name>
<Title>2013 color FSA</Title>
<CRS>EPSG:26915</CRS>
<EX_GeographicBoundingBox>
<westBoundLongitude>-97.31</westBoundLongitude>
<eastBoundLongitude>-89.33</eastBoundLongitude>
<southBoundLatitude>43.37</southBoundLatitude>
<northBoundLatitude>49.40</northBoundLatitude>
</EX_GeographicBoundingBox>
<BoundingBox CRS="EPSG:26915" minx="187392" miny="4808960" maxx="766464" maxy="5478912" resx="1" resy="1"/>
<MaxScaleDenominator>75000000</MaxScaleDenominator>
</Layer>
<Layer queryable="0" opaque="1">
<Name>fsa2015cir</Name>
<Title>2015 cir FSA</Title>
<CRS>EPSG:26915</CRS>
<EX_GeographicBoundingBox>
<westBoundLongitude>-97.31</westBoundLongitude>
<eastBoundLongitude>-89.33</eastBoundLongitude>
<southBoundLatitude>43.37</southBoundLatitude>
<northBoundLatitude>49.40</northBoundLatitude>
</EX_GeographicBoundingBox>
<BoundingBox CRS="EPSG:26915" minx="187392" miny="4808960" maxx="766464" maxy="5478912" resx="1" resy="1"/>
<MaxScaleDenominator>75000000</MaxScaleDenominator>
</Layer>
<Layer queryable="0" opaque="1">
<Name>fsa2015</Name>
<Title>2015 color FSA</Title>
<CRS>EPSG:26915</CRS>
<EX_GeographicBoundingBox>
